PID,x_merc,y_merc,Neighborhood,Sector,SalePrice,latitude,longitude,le_Neighbor,le_Sector,MSSubClass,YearBuilt,YearRemodAdd,OverallQual,Prop_Addr,GrLivArea
909176150,-10425250.559492102,5163760.720363054,SWISU,SO,126.0,42.01856448979592,-93.65161918367347,21,4,1Fl,1939,1950,6,436 HAYWARD AVE,856
905476230,-10426592.160815949,5164703.377285634,Edwards,WE,140.0,42.02485531593042,-93.66367099341755,7,5,1FlPUD,1984,1984,5,3416 WEST ST,1049
911128020,-10421070.3919705,5164207.719008793,IDOTRR,DT,125.0,42.021547615297024,-93.61406809992512,11,0,1Fl,1930,2007,5,320 S 2ND ST,1001
535377150,-10420863.210730867,5166582.151480443,OldTown,DT,114.0,42.03739146938776,-93.61220695918368,20,0,2Fl,1900,2003,4,1524 DOUGLAS AVE,1039
534177230,-10423046.3370085,5167655.719510569,NWAmes,NW,227.0,42.04455376067282,-93.63181831620726,17,2,2Fl,2001,2001,8,2304 FILLMORE AVE,1665
908128060,-10427629.203104476,5163827.291298559,Edwards,WE,198.0,42.01900877172312,-93.67298690279816,7,5,SPLIT,2003,2003,7,4003 MARIGOLD DR,1922
902135020,-10420902.613297964,5165648.504091299,OldTown,DT,93.0,42.031162,-93.61256091846626,20,0,1Fl,1953,1953,4,212 10TH ST 210,936
528228540,-10424131.76538897,5170463.817600481,Blmngtn,NW,188.0,42.06328412279648,-93.6415688852472,0,2,1Fl,2007,2008,7,2431 LAKESIDE DR,1246
923426010,-10419907.18409276,5158956.785386048,Mitchel,SE,138.0,41.98649573595674,-93.6036188257733,14,3,1Fl,1984,1984,5,602 KEN MARIL RD,889
908186050,-10427173.391527144,5163819.358739377,Edwards,WE,140.0,42.0189558314751,-93.6688922777322,7,5,2FlPUD,2005,2005,6,3901 MARIGOLD DR,1072
528186170,-10421771.804958371,5166153.874296733,NridgHt,NW,220.0,42.0600881067537,-93.65380926777956,19,2,1FlPUD,2006,2007,8,3629 CHILTON AVE,1342
923426070,-10419742.55289966,5158957.40577067,Mitchel,SE,136.0,41.98649987838884,-93.60213991860324,14,3,2Fl,1991,1991,5,700 KEN MARIL RD,1274
902204080,-10420483.565830734,5165799.172127037,OldTown,DT,80.0,42.03216732653061,-93.6087965510204,20,0,1Fl,1920,1950,4,1102 CARROLL AVE,861
535105100,-10421254.395334316,5168007.669574904,NAmes,NO,159.0,42.04690161396658,-93.61572103026556,15,1,1Fl,1963,1963,6,2519 KELLOGG AVE,1394
907405020,-10429261.737870645,5163362.696862511,CollgCr,WE,214.0,42.01590809090909,-93.6876522121212,5,5,1Fl,2002,2003,7,812 TENNYSON AVE,1536
531382110,-10429434.802061465,5166354.023588935,SawyerW,WE,163.0,42.03586941394644,-93.68920687419867,23,5,2Fl,1993,1994,6,5220 MARYLAND ST,1680
906380120,-10429424.1636687,5164698.048046904,CollgCr,WE,203.0,42.02481975297594,-93.68911130789051,5,5,1Fl,2005,2007,7,319 HARTFORD DR,1274
909101060,-10425841.405218564,5164287.8662775485,Edwards,WE,67.0,42.02208247765018,-93.65692684113984,7,5,1Fl,1914,1950,3,2910 WOOD ST,864
534152050,-10423654.239340808,5167470.250265162,NWAmes,NW,205.0,42.04331646337044,-93.63727919577092,17,2,1Fl,1977,2001,6,2102 PRAIRIE VIEW EAST,1610
923252075,-10420192.359045427,5159111.3426505495,Mitchel,SE,131.0,41.98752773737374,-93.6061805959596,14,3,SPLIT,1993,1996,6,424 TEAGARDEN DR,1091
531376060,-10429651.083112076,5166606.94983345,SawyerW,WE,181.0,42.03755692029672,-93.691149759933,23,5,1Fl,2006,2006,7,1514 CALIFORNIA AVE,1486
902201120,-10420487.907290876,5166001.649912255,OldTown,DT,115.0,42.03351832653061,-93.6088355510204,20,0,1Fl,1948,1950,5,1216 CARROLL AVE,789
923228080,-10419847.913464803,5159804.450016789,MeadowV,SE,98.0,41.99215551070729,-93.6030863886634,13,3,2FlPUD,1970,2007,6,626 MEADOW PL,1092
902326030,-10420872.29576441,5165378.16644614,OldTown,DT,266.0,42.02935814285714,-93.61228857142856,20,0,2Fl,1880,2003,7,829 DOUGLAS AVE,2640
527451330,-10422577.248517156,5168723.448984559,BrDale,NO,106.0,42.051676299375686,-93.62760442259348,2,1,2FlPUD,1971,1971,5,1342 BARKLEY CT,1092
528218100,-10424529.383670524,5170246.500691482,Gilbert,NW,168.0,42.06183478929063,-93.64514075104287,8,2,2Fl,2006,2007,7,4205 CRESTMOOR AVE,1458
916386140,-10425111.946279626,5160220.194046976,Timber,SO,201.0,41.994931209457846,-93.650374,26,4,1Fl,2007,2007,8,3028 COTTONTAIL LN,1466
533221090,-10424706.852359056,5167898.798134411,Somerst,NW,178.0,42.046175343583606,-93.64673497939646,24,2,2FlPUD,2000,2000,6,2711 HAMPTON ST,1573
534128010,-10423138.45058114,5168327.362297633,NWAmes,NW,200.0,42.04903420384354,-93.63264578650906,17,2,2Fl,1973,1973,7,1636 JOHNSON ST,2090
528106110,-10425827.768873418,5170173.994333358,NridgHt,NW,450.0,42.06135122133348,-93.6568043437672,19,2,1Fl,2005,2006,10,3331 WESTON DR,2046
902206260,-10420668.132237831,5165638.262284783,OldTown,DT,91.0,42.03109366137248,-93.61045453926472,20,0,1Fl,1938,1996,5,926 DUFF AVE,886
528222090,-10424439.53462146,5170455.175192507,Gilbert,NW,174.0,42.06322648533865,-93.64433362330249,8,2,1Fl,2007,2007,7,4302 WELBECK DR,1258
528218150,-10424635.47764074,5170381.357249893,Gilbert,NW,200.0,42.06273418076429,-93.64609380939284,8,2,1Fl,2005,2005,6,4103 CRESTMOOR AVE,1324
903400180,-10422551.905385012,5165405.979099466,BrkSide,DT,207.0,42.02954372815348,-93.62737676136398,3,0,1Fl,1923,2000,6,816 BROOKRIDGE AVE,1848
535453210,-10420256.725448454,5166564.511789879,NAmes,NO,155.0,42.037273779743664,-93.60675880919582,15,1,1Fl,1960,1960,5,1522 MAXWELL AVE,1269
916386010,-10424985.151107786,5160265.519585821,Timber,SO,220.0,41.99523381632653,-93.64923497959184,26,4,1Fl,2008,2008,7,3005 CEDAR LN,1346
907181090,-10429576.108083682,5163584.490818757,CollgCr,WE,196.0,42.01738835191348,-93.69047624779364,5,5,2Fl,1999,1999,7,5408 CERVANTES DR,1749
902206020,-10420637.593384944,5165766.625720992,OldTown,DT,62.0,42.03195016326531,-93.61018020408164,20,0,1Fl,1921,1950,3,118 E 11TH ST,492
527327050,-10423017.594154209,5169147.651508225,NWAmes,NW,195.0,42.05450581967213,-93.6315601147541,17,2,2Fl,1976,1976,6,3323 BUCHANAN CT,2030
527455250,-10422331.589556022,5168299.9219703,NAmes,NO,129.0,42.048851159119046,-93.6253976305988,15,1,1Fl,1966,1966,5,1115 28TH ST,988
528326110,-10425562.005841756,5169301.194544957,NoRidge,NW,291.0,42.05552995303909,-93.65441695383424,18,2,2Fl,2000,2000,9,3013 ALMOND RD,2172
914452190,-10420331.385082023,5160110.525553981,Mitchel,SE,134.0,41.99419902380953,-93.60742948809524,14,3,1Fl,1983,1983,6,302 OPAL CIR,1080
535425060,-10420084.944365162,5167167.399334069,NAmes,NO,186.0,42.04129604081633,-93.6052156734694,15,1,1Fl,1958,2001,7,1903 MEADOWLANE AVE,1312
532376250,-10427583.79557269,5166352.848155054,Sawyer,WE,134.0,42.035861571428576,-93.672579,22,5,1Fl,1963,1963,5,4015 TORONTO ST,925
535379110,-10421047.771631123,5166365.621580026,OldTown,DT,148.0,42.03594679591837,-93.6138648979592,20,0,2Fl,1895,1999,5,1412 KELLOGG AVE,1534
528118010,-10425925.664495409,5170035.677877276,NridgHt,NW,325.0,42.06042873469387,-93.65768375510204,19,2,2Fl,2005,2006,8,3335 PRESTON CIR,2376
528235160,-10424376.96100298,5169928.3154826,Gilbert,NW,215.0,42.05971268357939,-93.64377151492386,8,2,2Fl,2004,2005,7,3908 WELBECK DR,1959
905478030,-10426260.722877031,5164704.233896708,Edwards,WE,131.0,42.02486103224607,-93.66069363575488,7,5,1Fl,1949,2008,5,3218 WEST ST,1716
902106130,-10421753.907510445,5165693.535113624,OldTown,DT,110.0,42.03146246938776,-93.6202082244898,20,0,1Fl,1920,1950,5,1010 GRAND AVE,936
902102080,-10421242.905611178,5165982.790260956,OldTown,DT,110.0,42.03339248979592,-93.61561781632652,20,0,1Fl,1910,1981,5,1203 BURNETT AVE,1230
909176170,-10425250.832111262,5163779.679586167,SWISU,SO,150.0,42.01869102040816,-93.65162163265306,21,4,DUP2FAM,1923,1950,5,426 HAYWARD AVE 428,2592
533206070,-10424804.959059324,5168088.444934506,Somerst,NW,194.0,42.04744045286655,-93.64761628687974,24,2,1FlPUD,2006,2007,8,2807 BRISTOL DR,1565
527302020,-10423716.65601202,5169292.23464153,NWAmes,NW,178.0,42.05547019086042,-93.63783989426828,17,2,SPLIT,1984,2003,6,3414 EISENHOWER AVE,1868
907414060,-10429117.89284863,5163072.57085471,CollgCr,WE,180.0,42.013971727272725,-93.68636003030302,5,5,1Fl,2004,2004,7,4824 WALLER ST,1422
904301060,-10426042.948275257,5165192.447766456,Edwards,WE,179.0,42.02811888524044,-93.6587373332222,7,5,DUP2FAM,1987,1988,5,3012 OAKLAND ST 3014,1200
532479020,-10426237.72029002,5166165.597254035,Sawyer,WE,140.0,42.034612217391306,-93.660487,22,5,1Fl,1972,1972,5,1306 SCOTT CIR,1641
528110070,-10425991.329856517,5170308.839709736,NridgHt,NW,395.0,42.06225054508096,-93.65827363707724,19,2,1Fl,2006,2006,8,3207 STOCKBURY ST,1973
534429130,-10421962.731674569,5166993.296082431,NAmes,NO,152.0,42.04013450915821,-93.62208412387304,15,1,1Fl,1960,1960,5,808 NARLAND DR,1248
528365060,-10425733.554316215,5168409.483169224,NoRidge,NW,341.0,42.049582,-93.655958,18,2,2Fl,1993,1994,7,2900 RIDGETOP RD,2418
533135020,-10425103.549609464,5168107.779310144,NoRidge,NW,235.0,42.04756942857143,-93.65029857142858,18,2,2Fl,1991,2008,7,2614 SOUTHRIDGE CIR,1755
910203100,-10422666.70234486,5164023.467977211,IDOTRR,DT,72.0,42.020318,-93.628408,11,0,1Fl,1925,1950,4,301 S RUSSELL AVE,672
905451390,-10427005.139428884,5164657.11807586,Edwards,WE,154.0,42.0245466193626,-93.66738084341767,7,5,1Fl,1954,1954,6,310 WESTWOOD DR,1626
533213010,-10424803.10690936,5168086.482810995,Somerst,NW,222.0,42.04742736392327,-93.6475996487335,24,2,1FlPUD,2008,2008,6,2805 BRISTOL DR,1726
528118030,-10425910.002524603,5170035.540179461,NridgHt,NW,390.0,42.06042781632653,-93.6575430612245,19,2,2Fl,2006,2006,9,3317 PRESTON CIR,2748
907200340,-10429291.591315309,5164184.118363936,CollgCr,WE,128.0,42.021390115667074,-93.68792039017748,5,5,1Fl,1976,1976,5,5203 SCHUBERT ST,894
528164060,-10425828.393662924,5169742.751107474,NridgHt,NW,615.0,42.05847504704884,-93.65680995634683,19,2,1Fl,2003,2003,10,3320 FOXLEY DR,2470
907202010,-10429141.988339772,5163927.799837606,CollgCr,WE,158.0,42.01967954096487,-93.68657648378274,5,5,1Fl,1978,1978,5,410 THACKERAY AVE,1174
528186180,-10421771.804958371,5166153.874296733,NridgHt,NW,254.0,42.0600881067537,-93.65380926777956,19,2,1FlPUD,2006,2006,8,3623 CHILTON AVE,1324
909250060,-10424724.40905478,5163838.61548949,SWISU,SO,169.0,42.019084346938776,-93.64689269387756,21,4,1Fl,1919,1990,6,2320 KNAPP ST,2447
528315060,-10425625.11608693,5169075.972175736,NoRidge,NW,284.0,42.05402771225761,-93.65498388281247,18,2,2Fl,1997,1997,8,3142 BAYBERRY RD,2199
528231020,-10424410.941195756,5169988.954012282,Gilbert,NW,184.0,42.06011711190303,-93.64407676418914,8,2,SPLIT,2004,2004,7,3917 WELBECK DR,1374
528456230,-10424761.335474752,5168650.5174276,Somerst,NW,210.0,42.05118981781087,-93.64722440955204,24,2,1Fl,2006,2007,7,2841 ASPEN RD,1335
907180120,-10429800.324907333,5163566.722353644,CollgCr,WE,214.0,42.01726976579473,-93.69249042179008,5,5,1Fl,1999,1999,7,5325 CERVANTES DR,1588
911370410,-10421238.230942186,5162389.221147587,Crawfor,SO,392.0,42.00941067078177,-93.6155758230605,6,4,1FlPUD,2008,2008,8,433 ASPEN RIDGE RD,1652
527108090,-10423557.214708516,5170448.455542246,Gilbert,NW,275.0,42.06318167099153,-93.63640760866966,8,2,2Fl,2006,2006,7,4316 HARRISON CIR,2021
528222050,-10424431.970931346,5170303.229000259,Gilbert,NW,157.0,42.0622131258519,-93.64426567751812,8,2,2Fl,2006,2007,6,4210 WELBECK DR,1412
528429110,-10421771.804958371,5166153.874296733,Somerst,NW,283.0,42.04986900501751,-93.64435615174447,24,2,1Fl,2007,2007,8,2416 DALTON CIR,1464
902328100,-10421208.164842747,5165184.718051257,OldTown,DT,144.0,42.02806730612245,-93.61530573469388,20,0,2Fl,1916,1950,7,704 BURNETT AVE,1690
527451410,-10422558.29206542,5168724.595802557,BrDale,NO,88.0,42.05168394906352,-93.62743413389023,2,1,2FlPUD,1971,1971,6,1314 BARKLEY CT,1092
531477050,-10421771.804958371,5166153.874296733,SawyerW,WE,68.0,42.03470048207807,-93.68653540778618,23,5,1Fl,1920,1950,5,,1012
914476130,-10419640.927265609,5160345.007804406,Mitchel,SE,148.0,41.9957645,-93.601227,14,3,SPLIT,1975,1975,6,3007 DIAMOND ST,1210
535453020,-10420173.043427115,5166543.474912727,NAmes,NO,159.0,42.03713342424243,-93.60600708080808,15,1,1Fl,1959,1959,5,1523 GLENDALE AVE,1256
535379100,-10421047.812523996,5166359.136984747,OldTown,DT,120.0,42.035903530612245,-93.61386526530612,20,0,1Fl,1920,1950,5,1408 KELLOGG AVE,1130
905108190,-10427468.382947592,5165606.206667933,Sawyer,WE,135.0,42.03087976925107,-93.67154223074894,22,5,SPLIT,1982,1982,5,934 MESA VERDE PL,858
905201110,-10426775.968202615,5165857.8574839765,Sawyer,WE,185.0,42.032558897959184,-93.6653221632653,22,5,1Fl,1956,1956,6,1124 SCHOLL RD,1188
903227090,-10422118.58107498,5165992.229257898,BrkSide,DT,132.0,42.03345546938776,-93.62348414285714,3,0,1Fl,1939,1950,6,1206 MARSTON AVE,1412
905107300,-10427609.865083024,5165675.342726284,Sawyer,WE,160.0,42.03134108089813,-93.6728131863958,22,5,SPLIT,1978,1978,6,3902 ARKANSAS DR,1040
903401070,-10422339.697247446,5165026.784911143,BrkSide,DT,165.0,42.02701343509556,-93.62547046323006,3,0,1Fl,1920,1950,6,611 RIDGEWOOD AVE,1376
903230100,-10422256.966134354,5165699.223428508,BrkSide,DT,100.0,42.03150042455403,-93.62472727699644,3,0,1Fl,1924,1950,5,1015 CURTISS AVE,1301
527105010,-10423843.13571906,5170047.284232189,Gilbert,NW,190.0,42.060506142537406,-93.6389760808079,8,2,2Fl,1997,1998,5,4025 BERKSHIRE AVE,1629
528480020,-10424364.13706313,5168791.914428078,Somerst,NW,228.0,42.052132986853664,-93.64365631551216,24,2,2Fl,2007,2007,7,2616 KINGSTON DR,1761
527402130,-10422467.558591826,5169277.088097403,NAmes,NO,112.0,42.05536916392078,-93.6266190612291,15,1,1Fl,1969,1969,4,1217 JEFFERSON ST,936
909251080,-10424677.925215982,5163646.592752822,Crawfor,SO,145.0,42.01780281632653,-93.64647512244898,6,4,2Fl,1926,1950,6,507 LYNN AVE,1316
908201120,-10426775.950028004,5164022.3741233405,Edwards,WE,118.0,42.0203107,-93.665322,7,5,DUP2FAM,1955,1955,4,3411 TRIPP ST 3413,1440
533221080,-10424705.649649838,5167898.688512139,Somerst,NW,166.0,42.04617461230033,-93.64672417527576,24,2,2FlPUD,2000,2000,6,2713 HAMPTON ST,1524
535178100,-10421268.253390932,5167306.427602496,NAmes,NO,148.0,42.04222355411135,-93.61584551930623,15,1,SPLIT,1956,1956,5,2004 BURNETT AVE,1370
535457050,-10420251.035317251,5166176.190630207,NAmes,NO,99.0,42.03468289795919,-93.60670769387757,15,1,1Fl,1961,1961,5,1302 MAXWELL AVE,925
923226270,-10419852.016541287,5159830.976709429,MeadowV,SE,86.0,41.992332618748165,-93.60312324722656,13,3,2FlPUD,1970,2002,4,615 MEADOW PL,630
535105090,-10421255.098438956,5168021.266328399,NAmes,NO,165.0,42.046992315952615,-93.61572734636202,15,1,SPLIT,1962,1962,6,2527 KELLOGG AVE,1431
533253070,-10424992.86333019,5167421.842732586,Greens,NW,212.0,42.04299352441229,-93.64930425966442,9,2,1FlPUD,1981,1981,8,2024 PINEHURST DR,1226
907280170,-10428560.608041467,5163678.235949842,CollgCr,WE,210.0,42.018014,-93.6813538557042,5,5,1Fl,1997,1998,7,4619 CLEMENS BLVD,1417
914476450,-10419894.735704618,5160390.767286975,Mitchel,SE,228.0,41.99607,-93.603507,14,3,1Fl,1991,1991,4,703 ONYX ST,1689
535327200,-10420864.405711524,5166764.576442524,NAmes,NO,132.0,42.038608571428576,-93.61221769387755,15,1,1Fl,1956,2000,5,1624 DOUGLAS AVE,928
528441090,-10424147.137531929,5168935.744634489,Somerst,NW,468.0,42.05309237188999,-93.6417069755569,24,2,1Fl,2005,2006,9,2426 YORKSHIRE CIR,2490
906426195,-10428322.511713596,5165137.166271832,ClearCr,WE,240.0,42.02775,-93.679215,4,5,2Fl,1992,1992,6,601 CHELSEA CT,1953
534275170,-10422139.332441645,5167297.284249555,NAmes,NO,152.0,42.04216255555556,-93.62367055555556,15,1,1Fl,1960,1998,6,2009 ROOSEVELT CIR,958
923226180,-10419796.14545576,5159861.367572519,MeadowV,SE,73.0,41.99253552569278,-93.60262134872586,13,3,2FlPUD,1970,1970,4,633 MEADOW PL,630
923226320,-10419882.731579356,5159812.96061861,MeadowV,SE,76.0,41.992212332620966,-93.60339916510804,13,3,2FlPUD,1972,1972,4,605 MEADOW PL,630
528118050,-10425899.561210733,5170035.448380921,NridgHt,NW,500.0,42.06042720408163,-93.65744926530613,19,2,1Fl,2007,2007,10,3305 PRESTON CIR,2290
916253320,-10421771.804958371,5166153.874296733,GrnHill,SO,330.0,42.001514,-93.644726,10,4,1FlPUD,1998,1998,7,,1502
904300150,-10426048.396320537,5165218.025229326,ClearCr,WE,108.0,42.02828955914435,-93.65878627384562,4,5,1Fl,1917,1950,5,3021 OAKLAND ST,1224
533236050,-10424214.067070358,5168041.637389131,Somerst,NW,172.0,42.047128208125024,-93.6423082138302,24,2,2FlPUD,1999,2000,8,2510 BRISTOL DR,1739
527354160,-10423466.88700226,5168855.242414541,NWAmes,NW,185.0,42.0525554028463,-93.6355961810786,17,2,2Fl,1980,1988,7,2009 STEVENSON DR,2044
528435040,-10424371.218804805,5169094.170225512,Somerst,NW,312.0,42.054149095181536,-93.64371993188,24,2,1Fl,2007,2007,7,2604 DALTON ST,1726
534129230,-10422876.6509045,5168199.230103461,NWAmes,NW,165.0,42.04817947474747,-93.630294,17,2,2Fl,1972,1972,6,2705 HOOVER AVE,1790
535325350,-10420929.42417872,5166730.017047181,NAmes,NO,125.0,42.038378,-93.61280176470588,15,1,1Fl,1955,1955,5,225 16TH ST,1056
902408080,-10420466.571913837,5164903.692351623,OldTown,DT,160.0,42.02619203943843,-93.60864389206752,20,0,2Fl,1890,1998,7,508 CARROLL AVE,2554
916455050,-10424718.147595525,5160535.522473661,Timber,SO,180.0,41.99703640663635,-93.64683644623204,26,4,1Fl,2001,2001,8,2829 WHITE OAK DR,1312
909276200,-10424217.62834612,5163777.653686808,Crawfor,SO,160.0,42.01867749991436,-93.64234020531468,6,4,1Fl,1940,1950,5,418 PEARSON AVE,1308
534277060,-10421910.843002375,5167702.37444671,NAmes,NO,109.0,42.044865,-93.621618,15,1,1Fl,1957,1957,4,2125 FURMAN DR,907
905107280,-10427618.67250023,5165675.415471013,Sawyer,WE,153.0,42.03134156628693,-93.67289230477073,22,5,SPLIT,1978,1978,6,3914 ARKANSAS DR,1034
923204050,-10420121.369432371,5159927.93826766,Mitchel,SE,132.0,41.99297998782015,-93.6055428854154,14,3,1Fl,1963,1963,4,3309 SOUTHDALE DR,1040
531376050,-10429650.0078836,5166611.741073608,SawyerW,WE,185.0,42.03758888668608,-93.69114010099126,23,5,2Fl,2005,2005,7,1508 CALIFORNIA AVE,1585
903454010,-10421771.804958371,5166153.874296733,IDOTRR,DT,127.0,42.02211967187807,-93.6223868045226,11,0,2Fl,1914,2006,6,1218 N 3RD ST,1355
906412010,-10429195.79517453,5165093.201287822,CollgCr,WE,475.0,42.02745662663366,-93.68705983880326,5,5,1Fl,2008,2008,9,532 WESTFIELD RD,2276
535301060,-10421427.715890585,5167157.99721693,NAmes,NO,142.0,42.041233315036166,-93.61727799531305,15,1,1Fl,1953,2006,5,1907 CLARK AVE,1154
534453080,-10422673.614035504,5166377.472369568,BrkSide,DT,112.0,42.03602586446804,-93.62847008877344,3,0,1Fl,1958,2000,5,1430 RIDGEWOOD AVE,808
911102180,-10421375.760568872,5164197.086267237,IDOTRR,DT,81.0,42.02147665741722,-93.6168112727172,11,0,1Fl,1910,2000,4,202 S WALNUT AVE,1049
535403210,-10420495.653232517,5166745.680827141,NAmes,NO,135.0,42.038482504829126,-93.60890513399804,15,1,1Fl,1957,1957,6,1604 CARROLL AVE,1105
531382120,-10429429.462927146,5166354.094904088,SawyerW,WE,194.0,42.03586988976251,-93.68915891193907,23,5,1Fl,1994,1998,6,5214 MARYLAND ST,1679
916455120,-10424726.056702573,5160307.790798563,Timber,SO,232.0,41.99551603030303,-93.6469074949495,26,4,1Fl,2003,2003,8,2311 SUNCREST DR,1440
905475510,-10426554.93767408,5164737.456889161,Edwards,WE,114.0,42.02508273469388,-93.6633366122449,7,5,1Fl,1964,1964,5,310 COLORADO CIR,1298
916326090,-10425033.160662722,5161088.683187583,Timber,SO,257.0,42.00072925266047,-93.64966625676163,26,4,1Fl,1958,1995,6,2320 TIMBERLAND RD,2279
909101140,-10425722.905824846,5164288.005222357,Edwards,WE,117.0,42.022083404893664,-93.65586234297449,7,5,1Fl,1941,1960,5,2812 WOOD ST,1604
907260050,-10429295.049037248,5163518.131764057,CollgCr,WE,213.0,42.016945472759005,-93.68795145142214,5,5,2Fl,2003,2003,7,5110 CLEMENS BLVD,1932
907131090,-10429587.76904595,5164107.82996204,CollgCr,WE,212.0,42.020881,-93.690581,5,5,2Fl,1996,1996,7,5300 NORRIS ST,1661
903206160,-10422545.917718844,5165581.199984144,BrkSide,DT,202.0,42.0307129108596,-93.6273229732436,3,0,2Fl,1924,1996,6,910 BROOKRIDGE AVE,1827
528222020,-10424403.455876404,5170219.595127441,Gilbert,NW,185.0,42.06165534795861,-93.64400952242131,8,2,2Fl,2006,2006,7,4116 WELBECK DR,1492
526352090,-10421559.771920815,5168690.227485151,NAmes,NO,167.0,42.05145469964584,-93.61846427481623,15,1,1Fl,1970,1970,7,3010 KELLOGG AVE,1277
534201280,-10422459.621374488,5167833.614510408,NAmes,NO,138.0,42.04574050623812,-93.62654775999262,15,1,1Fl,1968,1968,5,1237 24TH ST,1052
908102330,-10428008.241048936,5164027.276109269,Edwards,WE,102.0,42.020343414141415,-93.67639185858586,7,5,1Fl,1951,1951,4,301 ABRAHAM DR,1220
906385010,-10429857.905254727,5164667.860559171,CollgCr,WE,199.0,42.0246183061451,-93.69300767485136,5,5,1Fl,2009,2009,7,5505 DURANT ST,1226
534276230,-10421984.569070186,5167308.981993018,NAmes,NO,145.0,42.04224059534753,-93.62228029253552,15,1,DUP2FAM,1959,2005,5,2002 MELROSE AVE,1712
906420020,-10428636.12260112,5165374.373455452,SawyerW,WE,220.0,42.02933283335287,-93.6820322145353,23,5,2Fl,1992,1992,8,923 VERMONT CIR,1915
527404120,-10422526.439614126,5168998.997360978,NAmes,NO,126.0,42.053514279505634,-93.62714799845187,15,1,1Fl,1970,1970,4,3203 GARNER AVE,882
907192010,-10429458.972395103,5163510.119673498,CollgCr,WE,200.0,42.016892,-93.689424,5,5,2Fl,2002,2002,7,5301 CLEMENS BLVD,1861
527131030,-10423311.34744249,5170303.405289194,StoneBr,NW,278.0,42.06221430156738,-93.63419894544032,25,2,1FlPUD,2000,2000,8,4239 STONE BROOKE RD,1659
527452290,-10422747.417694714,5168315.489579787,NAmes,NO,145.0,42.04895500520409,-93.62913307832436,15,1,1Fl,1967,1975,5,1401 JOHNSON ST,1387
907250030,-10429288.385361511,5163759.779395094,CollgCr,WE,318.0,42.01855820993013,-93.68789159060452,5,5,1Fl,2003,2003,8,509 SMILEY AVE,1978
909251040,-10424729.04358052,5163658.319804788,Crawfor,SO,146.0,42.01788108163265,-93.6469343265306,6,4,1Fl,1921,2005,6,2322 BAKER ST,1298
535377100,-10420863.01081015,5166547.326628703,OldTown,DT,87.0,42.037159122448976,-93.61220516326532,20,0,1Fl,1900,1998,4,1502 DOUGLAS AVE,720
528174050,-10425002.7082566,5169857.110444047,NridgHt,NW,213.0,42.05923777869763,-93.64939269814306,19,2,1FlPUD,2005,2005,6,2910 HARRISON RD,1358
533128090,-10421771.804958371,5166153.874296733,NoRidge,NW,262.0,42.05159728000459,-93.65391395064373,18,2,1Fl,1994,1995,8,2700 NORTHRIDGE CIR,1624
533250110,-10424859.486252254,5167696.413121088,Veenker,NW,218.0,42.04482523153892,-93.64810611298782,27,2,1FlPUD,1995,1995,8,2869 GREENSBORO CIR,1239
908186040,-10427168.265024995,5163819.23133595,Edwards,WE,148.0,42.0189549812108,-93.66884622557988,7,5,2FlPUD,2005,2005,6,3905 MARIGOLD DR,1072
903231050,-10422140.762728434,5165831.525643476,BrkSide,DT,113.0,42.0323832020202,-93.6236834040404,3,0,1Fl,1939,1950,5,1113 MARSTON AVE,884
908152110,-10427868.651794331,5163795.256330052,Edwards,WE,160.0,42.01879497674418,-93.67513790697674,7,5,2Fl,1976,2001,6,414 WELLONS DR,1398
535476110,-10419940.049293812,5166669.573565542,NAmes,NO,145.0,42.03797473457034,-93.6039140588975,15,1,DUP2FAM,1978,1978,5,1603 MEADOWLANE AVE 1605,941
533250050,-10424838.606796792,5167684.861825492,Veenker,NW,246.0,42.04474817188798,-93.64791854964815,27,2,1FlPUD,1996,1996,8,2845 GREENSBORO CIR,1288
535325340,-10420923.63993067,5166730.017047182,NAmes,NO,134.0,42.038378,-93.61274980392156,15,1,1Fl,1956,1956,5,221 16TH ST,1005
909475050,-10424357.800617328,5162656.604915315,Crawfor,SO,198.0,42.01119537789834,-93.64359939425104,6,4,1Fl,1971,1971,7,2152 ASHMORE DR,1696
907196020,-10429363.85241877,5163512.06325729,CollgCr,WE,205.0,42.016904971498526,-93.68856952271436,5,5,1Fl,2001,2002,7,5216 CLEMENS BLVD,1541
533130160,-10425328.996741977,5167838.628525618,NoRidge,NW,285.0,42.04577395463849,-93.65232379747752,18,2,2Fl,1992,1993,8,2424 RIDGETOP CIR,2225
535102010,-10421396.969080515,5168304.252521269,NAmes,NO,175.0,42.04888004672891,-93.61700179201884,15,1,SPLIT,1966,1966,5,2729 NORTHWOOD DR,1280
531475220,-10428846.4577781,5166323.20765275,SawyerW,WE,160.0,42.035663809096576,-93.683921687578,23,5,DUP2FAM,1981,1981,6,1404 IDAHO AVE,1882
527325070,-10423434.658405349,5169153.885384235,NWAmes,NW,272.0,42.0545474,-93.63530666666668,17,2,2Fl,1977,1995,6,1904 BUCHANAN DR,2872
911175440,-10421148.514356082,5163841.021983725,IDOTRR,DT,115.0,42.019100407352354,-93.61476988525514,11,0,DUP2FAM,1951,1951,5,315 S 4TH ST,1396
903226160,-10422235.50516136,5166018.674404124,BrkSide,DT,134.0,42.03363191836735,-93.6245344897959,3,0,1Fl,1939,1950,6,1222 CURTISS AVE,1132
902134100,-10421091.756342627,5165512.411315965,OldTown,DT,78.0,42.03025391265237,-93.61426001934532,20,0,1Fl,1910,1950,5,321 9TH ST,899
902111010,-10421264.431102565,5165653.072558415,OldTown,DT,112.0,42.03119248315056,-93.61581118310563,20,0,1Fl,1925,1950,5,412 10TH ST,844
535381040,-10421072.295996493,5166188.560067831,OldTown,DT,143.0,42.03476542857143,-93.61408520408165,20,0,1Fl,1915,1950,4,1311 KELLOGG AVE,2377
910202060,-10422323.608083967,5164375.771254525,IDOTRR,DT,126.0,42.0226691058526,-93.62532593181548,11,0,1Fl,1922,2007,4,109 S MAPLE AVE,1154
535477180,-10419912.608667308,5166204.899060554,NAmes,NO,126.0,42.03487444444444,-93.60366755555556,15,1,1Fl,1962,1962,5,1308 MEADOWLANE AVE,864
528429120,-10421771.804958371,5166153.874296733,Somerst,NW,423.0,42.04986900501751,-93.64435615174447,24,2,1Fl,2005,2006,8,2422 DALTON CIR,2097
908127050,-10427462.466415033,5164127.93358797,Edwards,WE,120.0,42.0210151632653,-93.67148908163266,7,5,1Fl,1969,1969,5,211 DOTSON DR,1176
528439010,-10424307.15062901,5168952.439999121,Somerst,NW,247.0,42.05320373339322,-93.6431443976646,24,2,1Fl,2006,2007,8,2625 YORKSHIRE ST,1460
906223110,-10428633.816961285,5165722.230985761,SawyerW,WE,226.0,42.03165394178435,-93.68201150262026,23,5,1Fl,1994,1994,7,1018 VERMONT CT,1626
528358010,-10425643.42421098,5168686.434506551,NoRidge,NW,260.0,42.05142939902178,-93.65514834748906,18,2,1Fl,1996,1996,7,3127 ASPEN RD,1720
532378160,-10427290.234831076,5166162.040299492,Sawyer,WE,135.0,42.03458848484848,-93.66994189898988,22,5,1Fl,1961,1994,5,3815 ONTARIO ST,1236
531450040,-10429289.06385138,5166572.754508532,SawyerW,WE,176.0,42.037328774081566,-93.6878976855827,23,5,2Fl,1992,1992,6,1309 KENTUCKY AVE,1603
527326040,-10423409.503095342,5169241.149672261,NWAmes,NW,82.0,42.05512945519149,-93.63508069267212,17,2,1Fl,1977,1977,7,3412 TAFT AVE,1411
903204095,-10422373.116498418,5165996.477727168,BrkSide,DT,80.0,42.03348381632653,-93.6257706734694,3,0,1Fl,1930,1960,5,1209 NORTHWESTERN AVE,935
527182170,-10421771.804958371,5166153.874296733,StoneBr,NW,208.0,42.06046556852748,-93.6313684902607,25,2,2FlPUD,1984,1984,7,3908 STONE BROOKE CIR,2090
905105040,-10427951.312243408,5165636.916126442,Sawyer,WE,115.0,42.03108467910268,-93.67588045842474,22,5,1Fl,1968,1968,5,1001 ARIZONA AVE,897
528477020,-10424364.210312482,5168817.401386156,Somerst,NW,250.0,42.05230299257608,-93.64365697352228,24,2,1Fl,2006,2006,8,2617 KINGSTON DR,1656
905202210,-10426982.661395349,5165796.460204105,ClearCr,WE,164.0,42.03214923147222,-93.66717891980689,4,5,1Fl,1963,1963,5,3616 ROSS RD,1000
903425190,-10422049.627587082,5165017.977184113,OldTown,DT,220.0,42.02695466155664,-93.62286472313644,20,0,1Fl,1962,1962,6,609 NORTHWESTERN AVE,2486
535150210,-10421428.425222153,5167300.816798123,NAmes,NO,135.0,42.04218612244898,-93.61728436734694,15,1,1Fl,1955,1955,5,2013 CLARK AVE,1098
535453160,-10420252.226336643,5166395.604370786,NAmes,NO,134.0,42.036146841115006,-93.6067183929868,15,1,1Fl,1959,1959,5,1426 MAXWELL AVE,1040
535353130,-10421628.265891964,5166158.204384764,OldTown,DT,112.0,42.03456289103087,-93.61907956662776,20,0,1Fl,1952,1952,5,625 13TH ST,924
535456070,-10420368.740911895,5166184.592914598,NAmes,NO,150.0,42.03473895918367,-93.6077650612245,15,1,1Fl,1955,1967,5,1308 STAFFORD AVE,1588
908250090,-10426913.016509298,5163683.997206349,Edwards,WE,99.0,42.01805245,-93.66655328915088,7,5,1Fl,1953,1953,4,3505 COY ST,930
527452070,-10422541.022639755,5168542.755883229,NPkVill,NO,146.0,42.050471,-93.627279,16,1,1FlPUD,1975,1975,6,2951 NORTHWESTERN AVE,1069
902325100,-10421210.563891362,5165334.880225993,OldTown,DT,155.0,42.02906930612245,-93.61532728571429,20,0,2Fl,1910,2005,7,802 BURNETT AVE,2104
921126030,-10425442.18289276,5159811.313706326,Timber,SO,299.0,41.99220133684465,-93.65334056596954,26,4,1Fl,2007,2007,8,3217 RED FOX RD,1728
905401060,-10426879.15917807,5165271.265933123,ClearCr,WE,256.0,42.02864482351206,-93.66624914356966,4,5,1Fl,1954,1994,4,519 OLIVER CIR,1663
916402125,-10424635.57583664,5160917.613104307,Timber,SO,176.0,41.99958722865255,-93.64609469150162,26,4,1Fl,1987,1987,6,2513 WHITE OAK DR,1137
531452010,-10429103.314961636,5166172.083788175,SawyerW,WE,120.0,42.03465549651289,-93.68622907491604,23,5,2FlPUD,1980,1980,6,1302 INDIANA AVE,1217
528363070,-10425486.87032462,5168720.255847487,NoRidge,NW,321.0,42.051655,-93.653742,18,2,2Fl,1994,1995,8,3202 ASPEN RD,2494
533208090,-10424629.352404768,5168131.830596098,Somerst,NW,190.0,42.04772986946443,-93.64603878546193,24,2,2FlPUD,2004,2004,7,2732 NORTHRIDGE LN,1680
534401130,-10422785.858727807,5166854.857566132,NAmes,NO,175.0,42.0392109,-93.6294784,15,1,SPLIT,1966,1966,6,1317 COOLIDGE DR,1165
910203230,-10422783.79023489,5164105.205773456,IDOTRR,DT,85.0,42.0208634872324,-93.62945981841196,11,0,1Fl,1925,1950,4,304 S RIVERSIDE DR,641
907420090,-10428835.90107862,5163119.486993113,CollgCr,WE,165.0,42.01428485970911,-93.68382685513303,5,5,1Fl,2005,2005,7,922 POE AVE,1310
902303100,-10421577.874948056,5165168.014111446,OldTown,DT,144.0,42.02795584333695,-93.6186268970768,20,0,1Fl,1910,1990,6,609 7TH ST,1650
906392120,-10429424.998370366,5164465.287300921,CollgCr,WE,295.0,42.02326647986106,-93.68911880614316,5,5,1Fl,2005,2006,8,125 HARTFORD DR,1590
903484080,-10422173.925036514,5164419.0586623205,IDOTRR,DT,50.0,42.02295797959184,-93.62398130612245,11,0,1Fl,1910,1950,4,1003 LINCOLN WAY,1484
527301320,-10423663.20364858,5169013.97761565,NWAmes,NW,260.0,42.05361420021923,-93.63735972351776,17,2,2Fl,1980,1980,7,3217 EISENHOWER AVE,2353
527140090,-10423314.545497064,5170054.891189657,StoneBr,NW,180.0,42.06055687660365,-93.63422767405338,25,2,1FlPUD,1993,1993,8,4029 FLETCHER BLVD,1337
909428170,-10424000.614567615,5162874.298948682,Crawfor,SO,236.0,42.01264838383838,-93.64039073737374,6,4,1Fl,1956,1956,5,2117 GREENBRIAR CIR,1898
905228050,-10426115.8254476,5165877.20626641,Sawyer,WE,64.0,42.032688,-93.659392,22,5,1Fl,1947,1950,2,1101 IOWA AVE,660
533234020,-10424347.15746091,5167964.074947985,Somerst,NW,223.0,42.04661079961037,-93.64350378515024,24,2,2Fl,2001,2001,7,2517 SHERWOOD AVE,1789
533212100,-10424505.627003586,5168095.913083116,Somerst,NW,151.0,42.04749027140474,-93.64492734127276,24,2,2FlPUD,2005,2005,7,2611 STANGE RD,1200
534475185,-10422354.353060054,5166187.636747287,NAmes,NO,150.0,42.03475926805175,-93.62560211863472,15,1,1Fl,1953,1953,6,1306 NORTHWESTERN AVE,1505
905452150,-10426859.445426231,5164846.410906888,Edwards,WE,150.0,42.0258097972012,-93.66607205192382,7,5,1Fl,1953,1953,6,318 CRANE AVE,1609
528176010,-10425751.916242056,5169574.955999713,NridgHt,NW,500.0,42.05735590330952,-93.65612294798628,19,2,1Fl,2003,2004,9,3807 BRIDGEPORT DR,2696
535450160,-10420516.009782735,5166348.865639564,NAmes,NO,93.0,42.035835,-93.609088,15,1,DUP2FAM,1950,1950,3,1401 CARROLL AVE 1403,1040
533215040,-10424726.11886732,5167954.566956586,Somerst,NW,290.0,42.04654737280063,-93.64690805338492,24,2,1FlPUD,2001,2001,9,2505 BRADFORD DR,1419
528104010,-10425535.558577811,5170443.614784564,NridgHt,NW,345.0,42.06314938723892,-93.65417937402002,19,2,1Fl,2007,2007,8,3131 SEDWICK ST,2122
535325090,-10420890.867036032,5166979.519853979,NAmes,NO,127.0,42.0400426,-93.6124554,15,1,1Fl,1956,2003,5,1719 DOUGLAS AVE,925
909250210,-10424890.578469023,5163795.360209103,SWISU,SO,102.0,42.018795670013375,-93.64838541912324,21,4,1Fl,1926,1950,5,424 STANTON AVE,1522
527325110,-10423267.1596782,5169242.880529094,NWAmes,NW,190.0,42.055141,-93.633802,17,2,2Fl,1977,1977,7,1802 BUCHANAN DR,1969
910202030,-10422341.29275501,5164394.162316362,IDOTRR,DT,75.0,42.0227918367347,-93.62548479591835,11,0,1Fl,1922,1950,5,1108 LINCOLN WAY,816
535175180,-10421184.50820632,5167699.607097596,NAmes,NO,109.0,42.04484653880461,-93.61509322351316,15,1,1Fl,1959,1959,5,2304 KELLOGG AVE,1206
534202160,-10422435.700269517,5167959.57403533,NAmes,NO,142.0,42.04658077450373,-93.62633287305052,15,1,1Fl,1966,1966,5,1217 25TH ST,1232
916403020,-10424687.805388745,5160684.468335582,Timber,SO,180.0,41.9980307755102,-93.64656387755102,26,4,1Fl,1990,1990,7,2722 WHITE OAK CIR,1339
535354100,-10421421.099494245,5166200.070959508,NAmes,NO,132.0,42.03484223074918,-93.61721855921348,15,1,1Fl,1948,2002,6,1323 CLARK AVE,972
905227050,-10426237.497651037,5165981.367989059,Sawyer,WE,152.0,42.033383,-93.660485,22,5,1Fl,1941,1973,5,1202 SCOTT AVE,1350
534451020,-10422704.33564424,5166381.450777695,BrkSide,DT,64.0,42.03605240841249,-93.62874606568025,3,0,1Fl,1945,1950,3,1423 RIDGEWOOD AVE,670
533120030,-10425438.025007596,5168083.927834931,NoRidge,NW,302.0,42.04741032017221,-93.6533032150516,18,2,2Fl,1990,1990,8,3118 MAPLEWOOD RD,2810
905352010,-10421771.804958371,5166153.874296733,ClearCr,WE,182.0,42.02835252844245,-93.6715743005661,4,5,1Fl,1984,1984,6,200 TRAIL RIDGE RD,1522
905108220,-10427434.09069645,5165708.528847285,Sawyer,WE,137.0,42.03156251472419,-93.67123417821566,22,5,SPLIT,1982,1982,5,1008 MESA VERDE PL,860
527165170,-10423511.286155077,5169583.362333401,Gilbert,NW,168.0,42.05741197153812,-93.63599502545436,8,2,2Fl,1993,1994,6,3715 COLUMBINE CIR,1642
535353190,-10421764.19498524,5166353.70256458,NAmes,NO,98.0,42.03586727206577,-93.6203006384482,15,1,1Fl,1948,1950,6,1404 GRAND AVE,1458
528315070,-10425635.134838589,5169081.354435474,NoRidge,NW,286.0,42.0540636125256,-93.6550738827899,18,2,2Fl,1998,1998,8,3136 BAYBERRY RD,1976
903232060,-10422020.776059512,5165828.52518736,BrkSide,DT,115.0,42.03236318181818,-93.62260554545456,3,0,1Fl,1925,1999,5,1109 ROOSEVELT AVE,995
906204180,-10428814.052138211,5165952.341718961,SawyerW,WE,209.0,42.033189328297496,-93.68363058276196,23,5,2Fl,1989,1989,6,1124 IDAHO AVE,2559
906475110,-10428660.9759264,5164653.548711413,ClearCr,WE,188.0,42.024522800247645,-93.68225547575491,4,5,2Fl,1966,2007,6,215 PARKRIDGE CIR,2087
906223040,-10428593.532892205,5166099.372618492,SawyerW,WE,220.0,42.03417035507626,-93.68164962467064,23,5,2Fl,1994,2001,7,1017 FLORIDA AVE,1958
909253190,-10424890.379600072,5163495.402225146,SWISU,SO,91.0,42.0167937755102,-93.64838363265304,21,4,1Fl,1930,1950,6,612 STANTON AVE,790
923400150,-10420185.64839168,5158957.80217393,Mitchel,SE,94.0,41.986502525252526,-93.60612031313131,14,3,1Fl,1991,1992,5,428 KEN MARIL RD,974
923226290,-10419864.352922369,5159823.92536254,MeadowV,SE,79.0,41.992285539793606,-93.60323406682328,13,3,2FlPUD,1972,1972,4,611 MEADOW PL,1092
909282020,-10424265.26019724,5163350.468225746,Crawfor,SO,260.0,42.01582647553629,-93.6427680895134,6,4,2Fl,1945,2002,6,2124 COUNTRY CLUB BLVD,2320
528110110,-10425846.352935506,5170310.419832628,NridgHt,NW,418.0,42.062261083312976,-93.65697128723735,19,2,1Fl,2007,2007,8,3323 STOCKBURY ST,2464
534479320,-10421886.21993017,5166577.48740866,NAmes,NO,132.0,42.03736035134902,-93.62139680717895,15,1,1Fl,1954,1954,5,1526 HARDING AVE,1268
528150110,-10425948.448493212,5169906.933683888,NridgHt,NW,342.0,42.05957007718205,-93.65788842723664,19,2,2Fl,2004,2004,8,3215 HARRISON RD,2956
906380160,-10429682.109441685,5164668.4075902775,CollgCr,WE,194.0,42.02462195659309,-93.69142847419396,5,5,1Fl,2006,2006,7,5321 DURANT ST,1240
911370460,-10421223.044462482,5162389.147000817,Crawfor,SO,235.0,42.00941017586717,-93.61543940059218,6,4,1FlPUD,2006,2007,8,415 ASPEN RIDGE RD,1625
535477090,-10419912.84878992,5166456.147081374,NAmes,NO,137.0,42.036550780194254,-93.6036697126137,15,1,1Fl,1963,1963,5,1434 MEADOWLANE AVE,1117
534478230,-10422004.385782234,5166403.046863524,NAmes,NO,147.0,42.03619649733313,-93.62245830908866,15,1,1Fl,1950,2007,5,1428 ROOSEVELT AVE,1113
906426060,-10428609.867235731,5165213.949125834,ClearCr,WE,277.0,42.02826236005448,-93.68179635857511,4,5,1Fl,1958,2006,6,4813 DOVER DR,2144
528235190,-10424364.309912857,5170053.906063258,Gilbert,NW,201.0,42.06055030637491,-93.64365786824769,8,2,2Fl,2004,2005,7,4004 WELBECK DR,1598
923225440,-10419956.17043258,5159777.068356887,MeadowV,SE,85.0,41.99197269387755,-93.60405887755104,13,3,2FlPUD,1976,1976,5,535 MEADOW CT,1112
923276030,-10419918.249395233,5159319.111199031,Mitchel,SE,150.0,41.98891501194138,-93.60371822707666,14,3,1Fl,1984,1984,5,615 GARDEN RD,833
909425060,-10424288.982190918,5163171.278485244,Crawfor,SO,174.0,42.0146305299342,-93.64298118780832,6,4,2Fl,1941,1950,7,915 GASKILL DR,1564
902332030,-10420865.582106767,5165059.0500171,OldTown,DT,134.0,42.02722873813198,-93.61222826161584,20,0,DUP2FAM,1910,1998,6,621 DOUGLAS AVE 101,2291
528188060,-10421771.804958371,5166153.874296733,NridgHt,NW,173.0,42.0600881067537,-93.65380926777956,19,2,2FlPUD,2003,2004,7,3716 ASHTON DR,1626
527105140,-10423975.167788796,5170099.736779173,Gilbert,NW,225.0,42.06085597027575,-93.64016214507028,8,2,2Fl,2003,2003,7,4012 HYDE AVE,1733
535477150,-10419912.764027318,5166407.016434497,NAmes,NO,110.0,42.036222982244986,-93.60366895117828,15,1,1Fl,1962,1962,5,1402 MEADOWLANE AVE,894
535327210,-10420865.691565234,5166892.870653125,NAmes,NO,159.0,42.03946451020408,-93.61222924489796,15,1,1Fl,1956,2001,5,1704 DOUGLAS AVE,1384
533213070,-10424663.371410482,5168040.22209348,Somerst,NW,179.0,42.04711876691764,-93.64634438338976,24,2,2FlPUD,1999,1999,7,2717 BRISTOL DR,1501
904100100,-10421771.804958371,5166153.874296733,Sawyer,WE,219.0,42.03325702379296,-93.67065367833555,22,5,2Fl,1937,1980,7,1215 HYLAND AVE,2267
528188120,-10421771.804958371,5166153.874296733,NridgHt,NW,176.0,42.0600881067537,-93.65380926777956,19,2,2FlPUD,2003,2003,7,3702 CHILTON AVE,1626
528480180,-10424385.59673001,5168679.856165709,Somerst,NW,261.0,42.05138551893792,-93.64384909097969,24,2,1Fl,2007,2007,8,2625 CLAYTON DR,1584
528114040,-10425852.54955958,5170143.915854643,NridgHt,NW,383.0,42.06115061731414,-93.65702695245852,19,2,1Fl,2007,2007,9,3310 WESTON DR,1950
528235020,-10424258.689224718,5170145.859757817,Gilbert,NW,179.0,42.06116358191152,-93.64270906146292,8,2,2Fl,2004,2004,6,4005 BRICKMAN AVE,1515
908275110,-10426681.82939854,5163883.111068949,Edwards,WE,104.0,42.0193813,-93.6644765,7,5,1Fl,1956,1956,5,246 S FRANKLIN AVE,1560
905103140,-10427816.482671378,5165817.889780867,Sawyer,WE,164.0,42.03229221822774,-93.67466926377168,22,5,SPLIT,1966,1966,5,4107 ROSS RD,1320
902402260,-10420474.71025165,5165366.187141112,OldTown,DT,55.0,42.029278208465776,-93.608717,20,0,2Fl,1920,1950,2,822 CARROLL AVE,1086
528235200,-10424362.83258468,5170062.018473725,Gilbert,NW,170.0,42.060604411485215,-93.64364459718288,8,2,SPLIT,2004,2005,7,4010 WELBECK DR,1374
528181060,-10425159.285100566,5169734.216757067,NridgHt,NW,210.0,42.05841812593191,-93.65079925186382,19,2,1FlPUD,2006,2006,8,2908 ROXBORO DR,1554
923275200,-10419989.446284514,5159216.856600214,Mitchel,SE,124.0,41.988232259809486,-93.60435779961487,14,3,1Fl,1982,1982,5,3827 MINNETONKA AVE,816
903451110,-10422651.326567365,5164801.083573613,IDOTRR,DT,139.0,42.02550732377964,-93.62826987704072,11,0,1Fl,1930,1950,7,318 N RUSSELL AVE,1108
528181040,-10425150.31258315,5169726.171521788,NridgHt,NW,203.0,42.05836446699423,-93.6507186503685,19,2,1FlPUD,2005,2006,7,2914 ROXBORO DR,1368
908102110,-10428151.94526361,5164149.911847572,Edwards,WE,156.0,42.02116183673469,-93.6776827755102,7,5,1Fl,1954,1954,5,4404 TODD DR,992
533217050,-10424600.236144692,5168014.718094177,Somerst,NW,160.0,42.04694863364057,-93.64577722964748,24,2,2FlPUD,1999,2000,7,2710 BRISTOL DR,1252
533350090,-10425912.602290949,5166590.558391059,Veenker,NW,150.0,42.03744755908851,-93.6575664153229,27,2,2Fl,1977,1977,9,1712 AMHERST DR,2944
528445070,-10424453.781474823,5168925.99046228,Somerst,NW,221.0,42.0530273094722,-93.64446160496377,24,2,2Fl,2006,2006,8,2518 YORKSHIRE ST,1830
527212040,-10422715.339588065,5170058.072593004,StoneBr,NW,362.0,42.06057809473684,-93.62884491578949,25,2,2Fl,2006,2006,8,4020 EDGEWATER DR,2576
907200270,-10429292.665818738,5164307.208679294,CollgCr,WE,135.0,42.02221155838693,-93.687930042606,5,5,1Fl,1977,1977,5,112 SANDBURG CT,1040
908201040,-10426727.60227064,5164331.435233642,Edwards,WE,118.0,42.022373232949136,-93.66488768470606,7,5,1Fl,1947,2008,5,117 S FRANKLIN AVE 119,698
907410100,-10428862.568085795,5163116.242127721,CollgCr,WE,196.0,42.01426320254993,-93.68406640893436,5,5,2Fl,2005,2005,7,809 POE AVE,1611
903481120,-10421771.804958371,5166153.874296733,IDOTRR,DT,135.0,42.02211967187807,-93.6223868045226,11,0,1Fl,1927,1950,6,1027 N 2ND ST,1666
535453180,-10420255.975596486,5166536.360345363,NAmes,NO,152.0,42.03708595663889,-93.606752073161,15,1,1Fl,1960,1960,5,1506 MAXWELL AVE,1242
907227110,-10428758.761438882,5164229.822376642,CollgCr,WE,134.0,42.021695122448975,-93.68313389795918,5,5,SPLIT,1972,2003,5,212 ROCKWELL AVE,768
531453010,-10428965.953818353,5166174.519387067,SawyerW,WE,152.0,42.034671747183744,-93.6849951387715,23,5,1Fl,1984,1985,6,1304 ILLINOIS AVE,1097
531478010,-10428604.961067306,5166340.242979243,SawyerW,WE,107.0,42.03577746938775,-93.68175228571428,23,5,1Fl,1966,1966,4,4712 TORONTO ST,1056
535403200,-10420478.304280926,5166725.431773044,NAmes,NO,120.0,42.03834740816327,-93.60874928571428,15,1,1Fl,1959,1959,6,211 E 16TH ST,864
527254020,-10422638.99969444,5169949.760948637,StoneBr,NW,372.0,42.05985571428571,-93.62815914285714,25,2,1Fl,2008,2008,8,1214 ADAMS ST,2046
527366030,-10423882.929999026,5168480.241638441,Somerst,NW,220.0,42.05005399823367,-93.63933355890704,24,2,2Fl,2000,2001,8,2818 SOMERSET DR,1874
535325460,-10421222.813995928,5166872.843917909,NAmes,NO,167.0,42.03933089886095,-93.6154373302759,15,1,1Fl,1941,1963,7,1704 BURNETT AVE,2039
528110040,-10425729.134932432,5170428.607310957,NridgHt,NW,479.0,42.0630493,-93.6559183,19,2,1Fl,2007,2007,9,3308 SEDWICK ST,2552
906392090,-10429425.317288171,5164556.563235415,CollgCr,WE,234.0,42.02387559248089,-93.68912167103052,5,5,1Fl,2006,2006,6,215 HARTFORD DR,1846
535452140,-10420370.164383208,5166349.692248213,NAmes,NO,119.0,42.03584051515152,-93.60777784848484,15,1,1Fl,1952,1952,5,1402 STAFFORD AVE,732
535151160,-10421699.636532491,5167424.642137654,NAmes,NO,140.0,42.0430122,-93.6197207,15,1,1Fl,1962,1980,5,2204 BARR DR,1283
535456050,-10421771.804958371,5166153.874296733,NAmes,NO,130.0,42.04245001873649,-93.61752966037945,15,1,DUP2FAM,1961,1961,5,313 E 13TH ST 315,1800
903429110,-10421894.537337856,5165185.95284242,OldTown,DT,180.0,42.02807554568359,-93.62147152372344,20,0,2Fl,1915,1994,7,716 HODGE AVE,1944
916455150,-10424747.996762212,5160307.259744104,Timber,SO,282.0,41.99551248484848,-93.6471045858586,26,4,1Fl,2002,2002,8,2329 SUNCREST DR,1922
909425180,-10424420.544086136,5162986.885501257,Crawfor,SO,218.0,42.01339983344091,-93.64416302842116,6,4,1Fl,1977,1977,5,1036 ASH AVE,1647
528175050,-10425101.47514128,5169724.379153898,NridgHt,NW,212.0,42.05835251251395,-93.6502799361638,19,2,1FlPUD,2007,2008,7,2907 ROXBORO DR,1358
910205010,-10421771.804958371,5166153.874296733,IDOTRR,DT,126.0,42.02211967187807,-93.6223868045226,11,0,SPLIT,1967,1967,5,1110 S 2ND ST,1656
533206020,-10424824.054445423,5168133.368075052,Somerst,NW,281.0,42.0477401256381,-93.64778782365164,24,2,2FlPUD,2004,2005,7,2819 BRISTOL DR,3005
902427040,-10420042.612234816,5165017.056275081,OldTown,DT,87.0,42.0269485163718,-93.6048353974724,20,0,1Fl,1930,1950,5,418 E 6TH ST,1248
528427020,-10424298.576440703,5169338.0983096,Somerst,NW,245.0,42.05577609900298,-93.64306737442054,24,2,1Fl,2008,2009,8,3211 CULLEN DR,1468
528458070,-10425123.662571076,5168717.943849065,Somerst,NW,215.0,42.05163957813237,-93.65047924923682,24,2,2Fl,2009,2009,7,2816 ASPEN RD,1547
903401030,-10422350.475844484,5165201.981785361,BrkSide,DT,162.0,42.02818250412261,-93.62556728901468,3,0,1Fl,1915,2004,6,701 RIDGEWOOD AVE,1716
909275040,-10424309.753432391,5163986.742496409,Crawfor,SO,138.0,42.02007290646511,-93.6431677790452,6,4,2Fl,1923,1950,6,311 PEARSON AVE,1603
527163130,-10423711.148157872,5169862.733236396,Gilbert,NW,181.0,42.05927528026756,-93.63779041637262,8,2,2Fl,1994,1995,6,3828 EISENHOWER AVE,1516
905200350,-10426947.407466209,5165820.692488812,Sawyer,WE,148.0,42.03231091899866,-93.66686222837316,22,5,SPLIT,1960,1960,6,3605 ROSS RD,1138
528363050,-10425765.4621172,5168582.838106288,NoRidge,NW,315.0,42.05073836734694,-93.65624463265306,18,2,1Fl,1994,1995,8,3212 SUMAC CIR,2063
908154205,-10421771.804958371,5166153.874296733,Edwards,WE,185.0,42.022026364190864,-93.66674564927546,7,5,2Fl,2007,2008,10,4302 COCHRANE PKWY,4676
903233140,-10421994.18644336,5165690.1131455125,BrkSide,DT,132.0,42.03143963636364,-93.62236668686867,3,0,1Fl,1929,2001,7,1004 ROOSEVELT AVE,854
905107070,-10427579.201351412,5165805.315272493,Sawyer,WE,150.0,42.03220831608917,-93.67253772940806,22,5,2Fl,1978,1978,6,3910 ROSS RD,1400
528240020,-10424126.991425088,5170148.064433919,Gilbert,NW,184.0,42.06117828569519,-93.641526,8,2,2Fl,2004,2004,7,4011 WESTLAWN DR,1720
906225180,-10428406.505472131,5165699.631291976,SawyerW,WE,224.0,42.03150314601391,-93.67996952877064,23,5,DUP2FAM,1993,1993,6,1005 DELAWARE AVE 1007,1440
528114010,-10425820.792499572,5170149.485445775,NridgHt,NW,415.0,42.061187762936285,-93.65674167393466,19,2,1Fl,2005,2005,9,3334 WESTON DR,1868
907126030,-10429765.794343945,5164150.759514319,CollgCr,WE,155.0,42.02116749369187,-93.69218022846148,5,5,1Fl,1994,1994,5,5416 NORRIS ST,990
904100160,-10425942.566805445,5165999.695983121,Sawyer,WE,135.0,42.033505289394334,-93.65783559113645,22,5,1Fl,1948,1950,5,2913 ROSS RD,1271
909254130,-10424504.371314356,5163410.308726766,Crawfor,SO,164.0,42.01622585714286,-93.64491606122448,6,4,2Fl,1941,1950,7,2227 STORM ST,1646
535403030,-10420660.456083868,5166994.09013956,NAmes,NO,128.0,42.04013980676682,-93.61038558320044,15,1,1Fl,1968,1968,6,114 E O NEIL DR,952
907412010,-10428999.360079722,5163056.31679507,CollgCr,WE,196.0,42.01386324242424,-93.68529523232324,5,5,2Fl,2004,2004,7,4919 WALLER ST,1720
903228080,-10421915.67972066,5165976.01535479,BrkSide,DT,131.0,42.033347285714285,-93.6216614489796,3,0,1Fl,1941,1950,6,807 12TH ST,1218
531452100,-10429103.806998972,5166317.959136654,SawyerW,WE,151.0,42.03562879077359,-93.68623349496264,23,5,1FlPUD,1991,1991,6,1420 INDIANA AVE,1217
526302030,-10421559.18473096,5169022.043364616,NAmes,NO,150.0,42.053668,-93.618459,15,1,1Fl,1954,1954,6,3115 NORTHWOOD DR,1293
902106090,-10421604.593520915,5165679.39440045,OldTown,DT,140.0,42.03136811566622,-93.61886691410052,20,0,2Fl,1900,1970,7,619 10TH ST,1428
527161090,-10424014.795117754,5169818.029136304,Gilbert,NW,180.0,42.05897712282691,-93.640518123423,8,2,2Fl,1999,2000,6,3842 HYDE AVE,1714
532353120,-10428073.118443375,5166191.9005195405,Sawyer,WE,121.0,42.03478771651257,-93.67697466213608,22,5,1Fl,1977,1977,5,1306 WOODSTOCK AVE,894
535453070,-10420172.77918388,5166377.824235912,NAmes,NO,154.0,42.03602821212121,-93.60600470707072,15,1,1Fl,1959,1994,5,1429 GLENDALE AVE,1246
534252110,-10422262.23019225,5167446.964541387,NAmes,NO,140.0,42.04316111859127,-93.62477456483307,15,1,1Fl,1960,1978,5,2115 HUNZIKER DR,1422
535327230,-10420865.759720022,5166903.179292299,NAmes,NO,100.0,42.039533285714285,-93.61222985714284,15,1,1Fl,1957,1982,5,1714 DOUGLAS AVE,1764
905425125,-10426546.935775217,5165233.187948629,ClearCr,WE,240.0,42.02839073708279,-93.6632647299644,4,5,1Fl,1908,1997,6,3421 OAKLAND ST,2358
908103280,-10427718.153654426,5163976.019849366,Edwards,WE,135.0,42.02000134693878,-93.67378595918368,7,5,1Fl,1976,1976,6,4125 APLIN RD,1127
528221060,-10424607.618516771,5170381.090827345,Gilbert,NW,174.0,42.06273240393949,-93.6458435466242,8,2,2Fl,2005,2005,6,4110 CRESTMOOR AVE,1484
921128020,-10425299.39928097,5159913.991878758,Timber,SO,378.0,41.992886874408,-93.65205791896162,26,4,1Fl,2008,2009,9,2716 COTTONWOOD RD,2018
528174040,-10425006.16291462,5169856.100483011,NridgHt,NW,207.0,42.05923104269617,-93.64942373186408,19,2,1FlPUD,2005,2006,6,2914 HARRISON RD,1362
909256010,-10424889.847992709,5163376.12537673,SWISU,SO,131.0,42.01599771428572,-93.64837885714286,21,4,1Fl,1939,1950,5,714 STANTON AVE,1465
533212060,-10424505.577489149,5168105.531394237,Somerst,NW,152.0,42.047554433193056,-93.644926896477,24,2,2FlPUD,2005,2005,6,2621 STANGE RD,1236
908204180,-10426779.233952982,5163967.756511119,Edwards,WE,62.0,42.0199462,-93.6653515,7,5,DUP2FAM,1955,1955,4,3412 TRIPP ST 3414,1152
533223100,-10424563.075342717,5167906.031044645,Somerst,NW,147.0,42.04622359385471,-93.64544340848364,24,2,2FlPUD,2003,2003,7,2412 EATON AVE,1080
909176180,-10425250.941158928,5163787.263285973,SWISU,SO,137.0,42.01874163265306,-93.6516226122449,21,4,1Fl,1938,1950,5,422 HAYWARD AVE,1551
903475040,-10422061.428332306,5164981.927379821,OldTown,DT,128.0,42.0267141023798,-93.6229707310344,20,0,1Fl,1941,1950,5,914 6TH ST,1382
535426195,-10420139.25720448,5166831.38528566,NAmes,NO,208.0,42.039054300535824,-93.60570357400624,15,1,1Fl,1957,1997,5,1630 CRESTWOOD CIR,1600
905103040,-10427580.695457922,5165830.597687888,Sawyer,WE,172.0,42.03237701034279,-93.6725511511952,22,5,2Fl,1978,1978,6,3913 ROSS RD,1683
528110100,-10425858.850945938,5170310.283615132,NridgHt,NW,380.0,42.0622601748447,-93.65708355877528,19,2,2Fl,2006,2006,9,3313 STOCKBURY ST,2643
534431030,-10421924.261037191,5166852.27752881,NAmes,NO,137.0,42.03919368684427,-93.6217385362576,15,1,1Fl,1947,1950,5,806 MURRAY DR,1043
905300010,-10428219.56960661,5165391.505290264,Sawyer,WE,130.0,42.02944714893617,-93.67829025531914,22,5,SPLIT,1971,1972,5,4418 PHOENIX ST,810
914474070,-10419894.585846566,5160266.635878279,Mitchel,SE,215.0,41.99524126901108,-93.6035056538022,14,3,2Fl,2001,2002,6,3012 SAPPHIRE CIR,1961
534428100,-10421969.072603254,5167018.520862649,NAmes,NO,153.0,42.04030279785764,-93.62214108540458,15,1,1Fl,1960,2000,5,821 NARLAND DR,1118
533350050,-10425982.972101472,5166566.8890979495,Veenker,NW,385.0,42.03728964083625,-93.65819855808628,27,2,1Fl,1981,1987,9,3110 KINGMAN RD,1842
908188130,-10427265.757753003,5163796.792545076,Edwards,WE,130.0,42.01880522915272,-93.66972201765648,7,5,2FlPUD,2004,2006,6,3830 MARIGOLD DR,1709
534453150,-10422648.116154777,5166335.897270088,BrkSide,DT,127.0,42.03574847468436,-93.62824103741372,3,0,1Fl,1908,1991,5,1402 RIDGEWOOD AVE,1252
528458120,-10424865.774357688,5168519.039500059,Somerst,NW,270.0,42.0503128,-93.6481626,24,2,2Fl,2006,2006,8,2719 CAMBRIDGE DR,1959
535179050,-10420970.34737366,5167567.062999401,NAmes,NO,141.0,42.04396232081264,-93.61316938402076,15,1,1Fl,1957,1957,5,208 22ND ST,1092
527302185,-10423564.737345343,5169267.290861013,NWAmes,NW,235.0,42.055303816598176,-93.6364751856661,17,2,1Fl,1978,1978,7,3416 CLINTON CT,2064
534128190,-10423191.587161211,5167946.14850483,NWAmes,NW,257.0,42.04649121414232,-93.63312312052932,17,2,2Fl,1967,1997,6,2531 PIERCE AVE,2640
528180110,-10425233.223614376,5169640.786968438,NridgHt,NW,337.0,42.05779497875085,-93.65146345283424,19,2,1FlPUD,2008,2008,9,3015 BURNHAM DR,1866
916176125,-10425065.313414942,5161204.010978162,Timber,SO,375.0,42.00149914254683,-93.64995508984912,26,4,1Fl,1965,1965,7,2227 TIMBERLAND RD,2036
903454090,-10421771.804958371,5166153.874296733,IDOTRR,DT,141.0,42.02211967187807,-93.6223868045226,11,0,1Fl,1937,1950,6,1211 N 2ND ST,1375
535457010,-10420170.305968164,5166196.953186975,NAmes,NO,160.0,42.03482142857143,-93.6059824897959,15,1,1Fl,1962,1962,6,1321 GLENDALE AVE,1116
528462040,-10424886.806250537,5168504.317413109,Somerst,NW,182.0,42.050214596203936,-93.648351532708,24,2,1Fl,2007,2008,7,2806 YORK DR,1428
909428120,-10423907.871938514,5162875.42036568,Crawfor,SO,217.0,42.01265586868687,-93.63955761616162,6,4,1Fl,1953,1953,6,2003 GREENBRIAR CIR,2259
916460060,-10424692.221067935,5160439.414949685,Timber,SO,195.0,41.996394780494285,-93.64660354427208,26,4,1Fl,1999,2000,6,2902 WHITE OAK DR,1675
528431050,-10424246.319415186,5169144.155338817,Somerst,NW,255.0,42.0544825,-93.64259794157329,24,2,1Fl,2006,2006,8,2507 DALTON ST,1636
527110020,-10423636.98978818,5170072.496357737,Gilbert,NW,168.0,42.060674292874886,-93.63712424040322,8,2,SPLIT,1995,1996,7,1909 WYNGATE DR,1474
535352080,-10421280.615656642,5166540.939792244,NAmes,NO,118.0,42.037116510204086,-93.61595657142855,15,1,1Fl,1947,1950,5,419 15TH ST,1216
527402250,-10422446.943150103,5169159.255262824,NAmes,NO,150.0,42.0545832173913,-93.62643386956522,15,1,1Fl,1971,2008,5,1115 GARNER CIR,1078
535451040,-10420393.804595072,5166550.737410982,NAmes,NO,119.0,42.03718187878788,-93.60799021212122,15,1,1Fl,1950,1950,5,1517 STAFFORD AVE,988
905452050,-10421771.804958371,5166153.874296733,Edwards,WE,113.0,42.022026364190864,-93.66674564927546,7,5,1Fl,1941,1950,4,329 FRANKLIN AVE,672
903225090,-10422348.208194396,5165987.693277318,BrkSide,DT,159.0,42.03342520408163,-93.62554691836736,3,0,1Fl,1947,1950,6,1202 NORTHWESTERN AVE,1664
531363010,-10429679.15654022,5166630.712176225,SawyerW,WE,159.0,42.03771545869594,-93.69140194782878,23,5,1Fl,2007,2007,7,5406 KANSAS DR,1218
923205025,-10420309.13040084,5159662.360521263,Mitchel,SE,168.0,41.9912068279948,-93.60722957089274,14,3,DUP2FAM,1961,1975,4,314 PATRICIA DR,1622
532377060,-10427538.516840866,5166212.648509551,Sawyer,WE,122.0,42.03492614970521,-93.67217225423155,22,5,1Fl,1967,1967,5,1327 ALABAMA LN,900
902109160,-10421751.542570408,5165555.174688507,OldTown,DT,122.0,42.03053925526278,-93.62018697987196,20,0,1Fl,1920,1950,5,926 GRAND AVE,1740
902128075,-10421063.77437588,5165814.431447332,OldTown,DT,120.0,42.03226914285714,-93.61400865306122,20,0,1Fl,1920,2006,7,1107 KELLOGG AVE,1027
528178070,-10425661.730741091,5169549.459726952,NridgHt,NW,421.0,42.05718584898524,-93.65531279784706,19,2,2Fl,2001,2002,8,3728 BRIDGEPORT DR,2649
903225160,-10422349.741677178,5166035.362473113,BrkSide,DT,107.0,42.03374326530612,-93.62556069387756,3,0,2Fl,1900,2000,6,1232 NORTHWESTERN AVE,1290
906380170,-10429673.607745284,5164668.414094937,CollgCr,WE,194.0,42.024622,-93.6913521021558,5,5,1Fl,2006,2006,7,5327 DURANT ST,1220
528174020,-10425011.345056862,5169854.586564054,NridgHt,NW,204.0,42.05922094551288,-93.64947028383988,19,2,1FlPUD,2005,2006,6,2920 HARRISON RD,1302
910201110,-10422500.446358137,5164350.669657422,IDOTRR,DT,100.0,42.022501592513066,-93.62691449706048,11,0,1Fl,1939,1950,4,125 S HAZEL AVE,1123
535325400,-10421223.094042543,5166748.284936575,NAmes,NO,105.0,42.03849987878044,-93.61543984597746,15,1,1Fl,1920,1994,4,1606 BURNETT AVE,985
535150070,-10421715.48733838,5167496.696454476,NAmes,NO,105.0,42.04349289193036,-93.61986309021196,15,1,1Fl,1920,2007,4,2201 BARR DR,1738
533254100,-10424738.803346489,5167309.642227069,Veenker,NW,187.0,42.042245,-93.647022,27,2,SPLIT,1976,1994,6,2106 TORREY PINES RD,1855
533254130,-10424570.376956915,5167452.193156618,Veenker,NW,182.0,42.043196,-93.645509,27,2,1Fl,1976,1976,6,2124 TORREY PINES RD,1262
907194110,-10429540.393825036,5163453.8757352345,CollgCr,WE,187.0,42.0165166262228,-93.69015542114964,5,5,1Fl,2001,2002,7,5344 CLEMENS BLVD,1430
531375100,-10429590.581629282,5166643.01185084,SawyerW,WE,158.0,42.03779751992414,-93.69060626586594,23,5,1Fl,2004,2004,6,5321 KANSAS DR,1158
532477030,-10426419.147816649,5166596.601610538,Veenker,NW,192.0,42.03748787855076,-93.6621167912013,27,2,1Fl,1974,1974,6,3326 KINGMAN RD,1430
534102025,-10423907.246750262,5168239.217955995,Somerst,NW,230.0,42.04844622222222,-93.639552,24,2,1Fl,2002,2002,7,2651 SOMERSET DR,1492
905452160,-10426859.506362945,5164850.3311602445,Edwards,WE,128.0,42.02583595734114,-93.66607259932762,7,5,1Fl,1954,1998,5,322 CRANE AVE,1172
533208050,-10424696.21644674,5168126.525214995,Somerst,NW,197.0,42.04769447845684,-93.64663943537052,24,2,1FlPUD,2005,2005,8,2808 NORTHRIDGE LN,1247
905427030,-10426279.88700909,5165202.701214911,Edwards,WE,415.0,42.0281873047507,-93.66086579008224,7,5,2Fl,1935,1990,6,3226 OAKLAND ST,3672
535301010,-10421457.143378949,5167271.985081181,NAmes,NO,136.0,42.04199377551021,-93.61754234693878,15,1,DUP2FAM,1979,1979,5,520 20TH ST 522,943
909280030,-10424089.414155103,5163515.709108047,Crawfor,SO,250.0,42.0169293039374,-93.64118843764037,6,4,1Fl,1936,1987,7,623 AGG AVE,2057
528116010,-10426027.986709328,5170088.230417145,NridgHt,NW,296.0,42.0607792297516,-93.65860293118872,19,2,1Fl,2004,2005,8,4115 WEMBLEY AVE,1782
528228270,-10424168.107586903,5170360.57135684,Blmngtn,NW,172.0,42.06259555537441,-93.64189535276586,0,2,1FlPUD,2006,2007,7,2421 WESTWIND DR,1258
907252210,-10428731.941372078,5163804.540863549,CollgCr,WE,236.0,42.01885693993959,-93.68289296919988,5,5,1Fl,2001,2001,8,4707 HEMINGWAY DR,1788
909475020,-10424352.9699914,5162725.316619753,Crawfor,SO,223.0,42.011654,-93.643556,6,4,1Fl,1969,1969,6,2166 ASHMORE DR,1844
907253110,-10428926.764044652,5163780.991879105,CollgCr,WE,230.0,42.01869977841745,-93.68464309104452,5,5,2Fl,2001,2001,7,4812 HEMINGWAY DR,2161
535325280,-10420888.90735863,5166755.005147615,NAmes,NO,130.0,42.03854471428571,-93.61243779591835,15,1,SPLIT,1955,1955,5,1617 DOUGLAS AVE,1360
532378240,-10427510.242282417,5166207.815490827,Sawyer,WE,126.0,42.03489390322482,-93.67191825955148,22,5,1Fl,1967,1967,5,1322 ALABAMA LN,902
908102260,-10428127.43080496,5163942.980147457,Edwards,WE,148.0,42.01978085,-93.67746255838134,7,5,1Fl,1965,1965,5,208 TODD CIR,1256
908226180,-10426350.00563758,5164358.91241166,Edwards,WE,79.0,42.022556599869965,-93.66149567643896,7,5,1Fl,1931,2006,3,110 S WILMOTH AVE,774
527425060,-10422121.18118023,5169459.374886719,NAmes,NO,97.0,42.056585,-93.6235075,15,1,1Fl,1971,1971,4,902 TOP O HOLLOW RD,864
527451540,-10422830.985360404,5168721.644441476,BrDale,NO,97.0,42.051664262423486,-93.62988377943782,2,1,2FlPUD,1972,1972,6,1428 BRECKINRIDGE CT,987
902128170,-10421219.639837602,5165841.429707293,OldTown,DT,119.0,42.032449285714286,-93.61540881632654,20,0,1Fl,1940,1992,5,1126 BURNETT AVE,804
903455090,-10421771.804958371,5166153.874296733,IDOTRR,DT,126.0,42.02211967187807,-93.6223868045226,11,0,1Fl,1938,1995,5,1103 N 2ND ST,1360
535300120,-10421771.804958371,5166153.874296733,NAmes,NO,176.0,42.04245001873649,-93.61752966037945,15,1,SPLIT,1962,1962,6,,1382
910203250,-10422783.886355728,5164174.6861876985,IDOTRR,DT,82.0,42.02132716963949,-93.62946068188016,11,0,1Fl,1941,1950,2,228 S RIVERSIDE DR,540
903228070,-10421912.381028809,5165975.886891605,BrkSide,DT,93.0,42.03334642857143,-93.62163181632653,3,0,1Fl,1924,1950,5,803 12TH ST,1142
527214060,-10422589.001340289,5169982.597047758,StoneBr,NW,535.0,42.06007471428571,-93.62771,25,2,2Fl,2006,2006,10,4008 FRANCES E DAVIS CT,2698
528427010,-10424292.851384873,5169339.454016891,Somerst,NW,235.0,42.05578514147359,-93.64301594536896,24,2,1Fl,2007,2008,8,3205 CULLEN DR,1580
535451250,-10420492.53598789,5166554.905363807,NAmes,NO,138.0,42.03720968686869,-93.60887713131314,15,1,1Fl,1950,1982,5,1518 CARROLL AVE,1904
908152270,-10427662.51699271,5163785.069245068,Edwards,WE,176.0,42.01872699002386,-93.67328616654792,7,5,1Fl,2005,2005,4,415 BEEDLE DR,1132
909452050,-10424484.89943976,5162555.781658616,Crawfor,SO,208.0,42.01052241853046,-93.6447411423989,6,4,SPLIT,1986,1986,6,1312 BIG BLUESTEM CT,1982
532354160,-10427771.818736294,5166167.106261176,Sawyer,WE,141.0,42.034622285714285,-93.67426804081632,22,5,1Fl,1961,1961,5,4133 ONTARIO ST,864
531453100,-10428966.749388918,5166326.942350397,SawyerW,WE,162.0,42.03568872714663,-93.68500228550349,23,5,2Fl,1986,1986,6,1510 ILLINOIS AVE,1400
527328050,-10423017.999720933,5169439.283733813,NWAmes,NW,152.0,42.05645099500372,-93.63156375802194,17,2,1Fl,1984,1984,6,1606 TOP O HOLLOW RD,1177
907418010,-10428818.406976145,5163215.35001152,CollgCr,WE,219.0,42.01492467356963,-93.6836697029367,5,5,1Fl,2007,2007,7,804 POE AVE,1564
528344020,-10425792.797920989,5169175.725860988,NoRidge,NW,322.0,42.05469307707867,-93.65649019435652,18,2,2Fl,1998,1999,8,3040 BAYBERRY RD,2582
532353180,-10428073.786041778,5166245.086879091,Sawyer,WE,151.0,42.03514258197271,-93.67698065927452,22,5,SPLIT,1977,1995,6,1330 WOODSTOCK AVE,1212
902106070,-10421590.29940067,5165679.586521504,OldTown,DT,128.0,42.03136939759234,-93.6187385078336,20,0,1Fl,1927,1950,6,611 10TH ST,1296
528221050,-10424613.802694192,5170392.918850548,Gilbert,NW,203.0,42.06281128732262,-93.64589910003518,8,2,1Fl,2005,2005,6,4102 CRESTMOOR AVE,1326
534479300,-10421886.129174646,5166552.783609166,NAmes,NO,121.0,42.037195530778,-93.62139599190822,15,1,1Fl,1954,1975,5,1512 HARDING AVE,936
906223060,-10428591.810946329,5166122.825743834,SawyerW,WE,213.0,42.03432683876907,-93.68163415616766,23,5,2Fl,1993,1993,7,1005 FLORIDA AVE,1775
535105060,-10421327.402569467,5168065.150109699,NAmes,NO,174.0,42.0472850574594,-93.61637686541748,15,1,1Fl,1962,2005,6,428 26TH ST,1537
528108040,-10425515.05727162,5170419.265816277,NridgHt,NW,399.0,42.062987,-93.65399520765304,19,2,2Fl,2009,2009,9,3106 SEDWICK ST,2690
909279010,-10424382.445149869,5163347.24017884,Crawfor,SO,205.0,42.01580493115075,-93.64382077985354,6,4,DUP2FAM,1940,1950,7,2159 COUNTRY CLUB BLVD 2157,2480
527183030,-10423132.897240356,5170121.722264379,StoneBr,NW,189.0,42.0610026,-93.6325959,25,2,1FlPUD,1988,1989,8,1527 STONE BROOKE RD,1228
527276160,-10422170.00485696,5169508.194706847,Gilbert,NW,185.0,42.05691061974768,-93.62394609055036,8,2,2Fl,1977,1977,5,3616 CALHOUN AVE,1934
902207130,-10420264.432867585,5165545.5906367535,OldTown,DT,13.0,42.03047530489075,-93.60682804611989,20,0,1Fl,1923,1970,2,931 MAXWELL AVE,832
903227020,-10422024.393426636,5166023.369449904,BrkSide,DT,128.0,42.03366324489796,-93.62263804081633,3,0,1Fl,1940,1950,6,1225 ROOSEVELT AVE,1196
908203100,-10426890.297408948,5163917.432165303,Edwards,WE,90.0,42.01961035,-93.6663492,7,5,1Fl,1958,1958,4,308 VILLAGE DR,960
534152120,-10423718.552037155,5167520.827421597,NWAmes,NW,168.0,42.043653874687614,-93.63785692655183,17,2,1Fl,1977,1977,6,2204 PRAIRIE VIEW EAST,1334
907290240,-10428645.760512434,5163417.287861447,CollgCr,WE,143.0,42.01627243643616,-93.6821187933657,5,5,1FlPUD,2004,2004,6,4715 TWAIN ST,848
528478030,-10424023.994899184,5168811.990471789,Somerst,NW,250.0,42.05226690017801,-93.64060076646572,24,2,2Fl,2003,2004,8,2419 KINGSTON DR,1992
910201180,-10422645.94921122,5164365.009117387,IDOTRR,DT,151.0,42.02259728571429,-93.62822157142855,11,0,2Fl,1923,1999,5,114 S RUSSELL AVE,1828
533208140,-10424623.542571072,5168144.75168535,Somerst,NW,178.0,42.047816063070826,-93.64598659483784,24,2,1FlPUD,2004,2005,7,2720 NORTHRIDGE LN,1245
528166150,-10425822.579101712,5169767.616583382,NridgHt,NW,350.0,42.05864089074064,-93.65675772325476,19,2,2Fl,2003,2003,8,3321 FOXLEY DR,2385
905107140,-10427523.64478986,5165574.561263543,Sawyer,WE,144.0,42.03066861357932,-93.6720386563243,22,5,1Fl,1977,1977,6,911 MESA VERDE PL,1285
527180100,-10423332.733815745,5169722.491405368,Gilbert,NW,180.0,42.058339921875,-93.6343910625,8,2,1Fl,1990,1990,7,3817 FLETCHER BLVD,1442
528458080,-10425125.78766882,5168717.755667715,Somerst,NW,255.0,42.05163832289438,-93.65049833931468,24,2,2Fl,2007,2007,8,2810 ASPEN RD,1792
905101450,-10427894.01345979,5165983.453987915,Sawyer,WE,154.0,42.03339691836735,-93.67536573469388,22,5,1Fl,1963,2003,6,1208 ARIZONA AVE,1068
914460110,-10420296.657445315,5160411.916213337,Mitchel,SE,245.0,41.9962111942174,-93.60711752442693,14,3,1Fl,2002,2002,7,303 RUBY CIR,1409
534400290,-10422656.952206634,5166726.447416166,NAmes,NO,153.0,42.03835418428905,-93.62832041301807,15,1,1Fl,1961,1995,5,1413 16TH ST,1313
907254020,-10428905.863362215,5163636.474806397,CollgCr,WE,230.0,42.01773528997087,-93.68445533701971,5,5,2Fl,1999,2000,8,519 POE CIR,1852
528458030,-10425115.1621801,5168718.696574507,Somerst,NW,213.0,42.05164459908436,-93.65040288892548,24,2,1Fl,2007,2008,8,2840 ASPEN RD,1372
528480060,-10424228.48113172,5168798.238149238,Somerst,NW,340.0,42.05217516802972,-93.6424376975465,24,2,2Fl,2007,2008,8,2518 KINGSTON DR,2078
905226050,-10426262.099258505,5165980.918367666,Sawyer,WE,112.0,42.03338,-93.660706,22,5,1Fl,1918,2007,5,1203 SCOTT AVE,1416
528253010,-10425160.578349378,5169764.951745951,NridgHt,NW,208.0,42.05862311726372,-93.65081086931556,19,2,1FlPUD,2007,2008,7,2839 ROXBORO DR,1314
528228345,-10423992.617319304,5170472.481995005,Blmngtn,NW,195.0,42.063341906833216,-93.64031889686984,0,2,1FlPUD,2003,2003,7,2309 WESTWIND DR,1455
527425140,-10421927.08497693,5169466.859083575,NAmes,NO,120.0,42.05663491840557,-93.62176390413988,15,1,1Fl,1971,1971,4,704 TOP O HOLLOW RD,864
907135020,-10429826.883312177,5163958.946772851,CollgCr,WE,144.0,42.01988740650545,-93.692729,5,5,1Fl,1995,2006,5,5409 FROST DR,1099
533206040,-10424811.049696011,5168098.121004065,Somerst,NW,176.0,42.047505,-93.647671,24,2,1FlPUD,2004,2004,7,2815 BRISTOL DR,1143
535181140,-10420869.53322358,5167442.816954259,NAmes,NO,130.0,42.04313344897959,-93.61226375510203,15,1,1Fl,1955,1975,5,2104 DOUGLAS AVE,1411
902427045,-10420037.572815536,5165016.932519039,OldTown,DT,97.0,42.026947690553214,-93.60479012759878,20,0,1Fl,1956,1956,5,422 E 6TH ST,882
527405130,-10422533.925454265,5168964.577648258,NAmes,NO,76.0,42.05328469387755,-93.62721524489795,15,1,1Fl,1970,1970,4,1202 WHEELER ST,864
528431040,-10424271.483127648,5169301.343242611,Somerst,NW,419.0,42.05553094484571,-93.64282399104836,24,2,1Fl,2007,2007,10,3217 KENT AVE,1966
527450210,-10422582.51390486,5168857.010053997,BrDale,NO,83.0,42.0525671934726,-93.62765172237602,2,1,2FlPUD,1973,1973,6,1333 TRUMAN PL,987
532378200,-10427392.4969633,5166163.470940291,Sawyer,WE,142.0,42.03459803030303,-93.67086053535353,22,5,1Fl,1961,1996,6,3905 ONTARIO ST,912
909278020,-10424422.878631616,5163509.280597918,Crawfor,SO,155.0,42.0168864,-93.644184,6,4,1Fl,1921,1950,5,602 ASH AVE,1343
534225110,-10422241.510488864,5168118.815377042,NAmes,NO,145.0,42.04764304782165,-93.62458843657076,15,1,DUP2FAM,1965,1965,5,2624 MELROSE AVE,1728
909451130,-10421771.804958371,5166153.874296733,Blueste,SO,124.0,42.009757,-93.647011,1,4,2FlPUD,1980,1980,6,1505 LITTLE BLUESTEM CT UNIT 116,1045
528142020,-10425531.91154462,5170036.614574199,NridgHt,NW,250.0,42.06043498193772,-93.65414661216344,19,2,2Fl,2007,2007,8,3122 BECKLEY ST,2088
527404030,-10422477.150763871,5169249.530254285,NAmes,NO,143.0,42.05518535362239,-93.6267052291767,15,1,1Fl,1971,1971,5,1212 JEFFERSON ST,1050
527162180,-10423849.380777104,5169790.408499152,Gilbert,NW,183.0,42.05879290415915,-93.6390321811188,8,2,2Fl,1998,1998,6,3840 BERKSHIRE AVE,1633
534151180,-10423621.615337258,5167440.659529476,NWAmes,NW,255.0,42.04311905624381,-93.63698612936076,17,2,2Fl,1993,1993,7,2025 PRAIRIE VIEW EAST,2075
908204090,-10426894.057331683,5163778.312991874,Edwards,WE,132.0,42.0186819,-93.6663829759606,7,5,1Fl,1959,2000,5,278 VILLAGE DR,960
532354070,-10427749.931961307,5166353.44461489,Sawyer,WE,132.0,42.03586555102041,-93.67407142857142,22,5,1Fl,1962,2001,5,4106 TORONTO ST,999
527302070,-10423711.619313478,5169154.529662059,NWAmes,NW,182.0,42.05455169737027,-93.63779464883544,17,2,1Fl,1983,1983,7,3306 EISENHOWER AVE,1260
527214030,-10422613.0463503,5169987.973353972,StoneBr,NW,387.0,42.060110571428574,-93.627926,25,2,1Fl,2004,2004,9,4013 FRANCES E DAVIS CT,1884
533128030,-10421771.804958371,5166153.874296733,NoRidge,NW,268.0,42.05159728000459,-93.65391395064373,18,2,2Fl,1992,2000,7,2713 NORTHRIDGE CIR,2295
902330010,-10420713.920125518,5165308.403452818,OldTown,DT,122.0,42.02889263343808,-93.61086585885806,20,0,2Fl,1872,1987,8,114 8TH ST,2358
923228150,-10419742.083286894,5159866.426207931,MeadowV,SE,97.0,41.9925693,-93.6021357,13,3,2FlPUD,1970,2008,4,707 MEADOW PL,1344
527302080,-10423710.8791685,5169146.928925478,NWAmes,NW,229.0,42.054501,-93.637788,17,2,1Fl,1988,1988,7,3300 EISENHOWER AVE,2183
528344040,-10425811.95610398,5169189.082234328,NoRidge,NW,340.0,42.05478216459611,-93.65666229524248,18,2,2Fl,1998,1998,8,3028 BAYBERRY RD,2450
535403040,-10420652.478966951,5166993.765470199,NAmes,NO,115.0,42.04013764071213,-93.61031392353992,15,1,1Fl,1964,1964,5,120 E O NEIL DR,912
535375050,-10421071.748486346,5166567.756581184,OldTown,DT,135.0,42.03729542857143,-93.6140802857143,20,0,1Fl,1916,1987,5,1517 KELLOGG AVE,1656
535376060,-10420887.573796568,5166559.840313518,OldTown,DT,149.0,42.0372426122449,-93.61242581632654,20,0,2Fl,1939,2006,5,1511 DOUGLAS AVE,1352
924151040,-10419500.856868517,5159443.497782514,Mitchel,SE,285.0,41.98974552906844,-93.59996872621436,14,3,1Fl,1994,1995,8,3616 JEWEL DR,1803
528186160,-10421771.804958371,5166153.874296733,NridgHt,NW,234.0,42.0600881067537,-93.65380926777956,19,2,1FlPUD,2006,2007,8,3703 CHILTON AVE,1342
532351150,-10428104.587113112,5166430.245651627,Sawyer,WE,120.0,42.03637796697601,-93.677257350006,22,5,DUP2FAM,1977,1977,6,4307 TORONTO ST,1654
905105010,-10427935.320364363,5165655.793370593,Sawyer,WE,142.0,42.03121063779482,-93.67573680093103,22,5,1Fl,1966,1966,5,1019 ARIZONA AVE,1059
527452310,-10422759.52201778,5168315.433832458,NAmes,NO,123.0,42.04895463333342,-93.62924181330852,15,1,SPLIT,1967,1967,5,1413 JOHNSON ST,900
909250200,-10424890.734671108,5163789.533206023,SWISU,SO,149.0,42.01875678168227,-93.64838682231044,21,4,2Fl,1920,1950,6,428 STANTON AVE,1510
905101300,-10427434.55492435,5165982.807218921,Sawyer,WE,136.0,42.03339260294421,-93.67123834844584,22,5,DUP2FAM,1967,1967,4,3901 QUEBEC ST 3903,1832
902329080,-10420899.87593433,5165181.315652566,OldTown,DT,119.0,42.02804460246242,-93.61253632831034,20,0,2Fl,1917,2007,6,219 7TH ST,1288
903225140,-10422349.230516251,5166019.4727146765,BrkSide,DT,124.0,42.03363724489796,-93.62555610204082,3,0,1Fl,1941,2006,5,1222 NORTHWESTERN AVE,1210
533215080,-10424710.510448666,5168000.706342376,Somerst,NW,329.0,42.046855163194245,-93.64676784057455,24,2,1FlPUD,1999,2000,9,2415 BRADFORD DR,1709
534452060,-10422587.331547927,5166176.205923768,BrkSide,DT,118.0,42.034683,-93.627695,3,0,DUP2FAM,1939,1950,5,1301 RIDGEWOOD AVE 1303,1077
532476050,-10426250.52203146,5166555.10217964,Veenker,NW,260.0,42.037211,-93.660602,27,2,SPLIT,1974,1974,7,1601 AMHERST DR,2646
909428110,-10423913.09592147,5163014.42694042,Crawfor,SO,157.0,42.01358365513965,-93.63960454399896,6,4,DUP2FAM,1953,1953,5,2004 MCCARTHY RD,1336
528170040,-10425313.343542308,5169749.984355818,NridgHt,NW,437.0,42.05852329023244,-93.65218318239246,19,2,2Fl,2005,2006,9,3108 ROXBORO DR,2728
533110130,-10425501.373202631,5167835.457476154,NoRidge,NW,260.0,42.04575280062971,-93.65387228156985,18,2,2Fl,1991,1992,8,2503 RIDGETOP RD,2417
921205030,-10424833.560508536,5159968.829745048,Timber,SO,370.0,41.993253,-93.64787321806948,26,4,1Fl,2005,2006,8,2406 COTTONWOOD RD,2028
923203090,-10420413.114626672,5159940.728886075,Mitchel,SE,164.0,41.99306538458213,-93.60816367708648,14,3,1FlPUD,1998,1998,6,3318 EMERALD DR,1216
535104120,-10421508.210787171,5168199.82821856,NAmes,NO,188.0,42.04818346460969,-93.61800109327204,15,1,1Fl,1961,1961,6,510 LUTHER DR,1453
528366070,-10425417.451487506,5168397.814684397,NoRidge,NW,263.0,42.04950416439778,-93.65311839997617,18,2,2Fl,1992,1993,8,3108 SYCAMORE RD,2202
902205010,-10421771.804958371,5166153.874296733,OldTown,DT,45.0,42.03110823180966,-93.6143793575468,20,0,1Fl,1940,1950,2,,612
923204040,-10420198.16561349,5159957.297275036,Mitchel,SE,173.0,41.99317600351737,-93.60623275724798,14,3,SPLIT,1964,1964,4,428 JEWEL DR,1200
535378080,-10421221.886673857,5166347.516723407,OldTown,DT,128.0,42.035826,-93.615429,20,0,1Fl,1925,1993,4,1400 BURNETT AVE,1281
533251130,-10424621.557074187,5167686.0121159945,Veenker,NW,194.0,42.04475584557552,-93.64596875881588,27,2,SPLIT,1978,1978,5,2804 PINEHURST CIR,1432
528235130,-10424394.78159214,5170005.925098012,Gilbert,NW,178.0,42.0602303,-93.6439316,8,2,2Fl,2004,2004,8,3838 WELBECK DR,1414
903226130,-10422235.232542198,5165999.551674795,BrkSide,DT,128.0,42.03350432653061,-93.62453204081632,3,0,1Fl,1936,1950,4,1210 CURTISS AVE,1324
903235020,-10422159.367127404,5165652.012092503,BrkSide,DT,89.0,42.03118540718059,-93.62385053019987,3,0,1Fl,1921,1950,5,1018 10TH ST,616
527425110,-10421986.589743985,5169463.745614097,NAmes,NO,130.0,42.0566141520629,-93.6222984445571,15,1,1Fl,1971,2006,4,804 TOP O HOLLOW RD,864
902327070,-10420686.913065637,5165342.480943849,OldTown,DT,160.0,42.02912002366332,-93.61062325031136,20,0,2Fl,1900,1950,6,803 DUFF AVE,2007
903425270,-10422314.7853648,5165037.723423539,BrkSide,DT,90.0,42.02708642718712,-93.6252466759807,3,0,1Fl,1926,1950,5,616 RIDGEWOOD AVE,1316
534127230,-10423349.588221831,5168314.058550409,NWAmes,NW,150.0,42.04894545931406,-93.63454246820592,17,2,1Fl,1968,1968,6,2729 CLEVELAND DR,1740
914478100,-10419673.621800054,5160147.667871261,Mitchel,SE,143.0,41.994447,-93.6015207,14,3,SPLIT,1974,1974,6,700 DIAMOND CT,1026
535301150,-10421557.25822222,5167101.921024363,NAmes,NO,156.0,42.040859204081634,-93.61844169387756,15,1,1Fl,1954,2000,6,1904 WILSON AVE,1050
903225150,-10422349.434980622,5166025.828614867,BrkSide,DT,87.0,42.03367965306122,-93.62555793877551,3,0,1Fl,1925,1950,4,1226 NORTHWESTERN AVE,765
527402220,-10422452.17378332,5169178.0121212965,NAmes,NO,148.0,42.05470832653061,-93.62648085714288,15,1,1Fl,1970,1970,5,3316 GARNER AVE,1002
904351240,-10425999.573821817,5164432.30962449,Edwards,WE,63.0,42.02304640816327,-93.65834769387754,7,5,1Fl,1934,1950,5,122 HOWARD AVE,1112
535452090,-10420277.05252665,5166390.345058446,NAmes,NO,128.0,42.03611175102567,-93.60694141044608,15,1,1Fl,1958,1958,5,1425 MAXWELL AVE,1041
528108020,-10425532.865131857,5170419.056908277,NridgHt,NW,253.0,42.06298560675671,-93.6541551783833,19,2,1Fl,2008,2009,8,3122 SEDWICK ST,2042
528427070,-10424401.17916334,5169336.399784461,Somerst,NW,214.0,42.055764769960014,-93.6439890703599,24,2,2Fl,2007,2007,6,3317 CULLEN DR,1933
902125020,-10421068.69515174,5166025.238292875,OldTown,DT,124.0,42.033675714285714,-93.61405285714284,20,0,2Fl,1880,1991,5,1229 KELLOGG AVE,1750
910201050,-10422522.11650093,5164393.608793134,IDOTRR,DT,130.0,42.022788142857145,-93.6271091632653,11,0,1Fl,1925,2003,5,1212 LINCOLN WAY,1601
527425090,-10421988.97034892,5169463.636184949,NAmes,NO,115.0,42.05661342218788,-93.62231982989508,15,1,1Fl,1971,1971,4,808 TOP O HOLLOW RD,864
909277100,-10423927.716232937,5163623.269602331,Crawfor,SO,164.0,42.01764715939968,-93.63973588049144,6,4,1Fl,1921,2006,5,2011 KILDEE ST,964
531452070,-10429103.756961277,5166303.124253413,SawyerW,WE,145.0,42.03552981169623,-93.68623304546638,23,5,1FlPUD,1990,1991,6,1408 INDIANA AVE,1332
528387050,-10425266.185203971,5168535.239597094,NoRidge,NW,271.0,42.05042086269845,-93.65175955183147,18,2,2Fl,1994,1994,7,3015 VALLEY VIEW RD,2127
905480240,-10426202.78402471,5164401.469217776,Edwards,WE,95.0,42.02284059853292,-93.66017316218904,7,5,1Fl,1941,1950,5,3121 LINCOLN WAY,1111
535476350,-10420039.27450568,5166500.186177764,NAmes,NO,192.0,42.036844606060605,-93.6048054141414,15,1,1Fl,1963,1984,6,1522 LINDEN DR,1395
527258010,-10421771.804958371,5166153.874296733,StoneBr,NW,394.0,42.06046556852748,-93.6313684902607,25,2,1Fl,2010,2010,9,1316 KINYON CIR,1856
906394060,-10429400.084384477,5164449.577040072,CollgCr,WE,181.0,42.02316163982928,-93.688895,5,5,2Fl,2005,2005,7,112 HARTFORD DR,1596
909282030,-10424254.786200518,5163357.439101339,Crawfor,SO,381.0,42.015873,-93.642674,6,4,1Fl,1935,1997,8,2116 COUNTRY CLUB BLVD,3447
905225040,-10426425.152712349,5166042.338515703,Sawyer,WE,140.0,42.03378981113612,-93.66217073409716,22,5,SPLIT,1958,1987,5,1239 WISCONSIN AVE,1601
908275130,-10426685.447281988,5163944.441104519,Edwards,WE,130.0,42.0197906,-93.664509,7,5,1Fl,1946,1995,5,234 S FRANKLIN AVE,1200
527226040,-10422134.952286908,5170195.997563971,Gilbert,NW,155.0,42.06149796826403,-93.6236312079561,8,2,DUP2FAM,1969,1990,5,4014 DAWES DR,1424
903458110,-10422338.571107049,5164418.893522361,IDOTRR,DT,90.0,42.02295687755102,-93.62546034693877,11,0,1Fl,1920,1950,6,1107 LINCOLN WAY,1406
535425080,-10420235.661326878,5167090.867731684,NAmes,NO,278.0,42.04078546204856,-93.60656958697224,15,1,2Fl,1962,1998,7,415 PAULSON DR,2448
907201220,-10429209.830206107,5163984.775386583,CollgCr,WE,140.0,42.020059778607575,-93.68718591763704,5,5,1Fl,1978,1978,5,5140 EMERSON DR,907
903426160,-10421921.59328463,5165341.422234495,OldTown,DT,160.0,42.02911295918368,-93.62171457142856,20,0,2Fl,1910,1983,6,817 HODGE AVE,1984
905478140,-10426025.658972526,5164571.733537692,Edwards,WE,125.0,42.023976828047495,-93.65858202077328,7,5,1Fl,1951,1951,5,209 HOWARD AVE,1342
906475070,-10428636.64818474,5164679.066754555,ClearCr,WE,185.0,42.02469308728671,-93.6820369359333,4,5,2Fl,1967,1967,5,234 PARKRIDGE CIR,2126
907414070,-10429124.932963094,5163075.090690462,CollgCr,WE,174.0,42.01398854545455,-93.68642327272728,5,5,1Fl,2005,2005,7,4818 WALLER ST,1190
914476050,-10419837.427985627,5160515.074810664,Mitchel,SE,135.0,41.996899895960425,-93.60299219600132,14,3,DUP2FAM,1977,1977,6,702 CRYSTAL ST,1004
923251180,-10420213.108323848,5159136.144806868,Mitchel,SE,131.0,41.98769334343434,-93.606366989899,14,3,1Fl,1960,1996,5,413 TEAGARDEN DR,1224
528235090,-10424312.591270396,5169889.568433897,Gilbert,NW,200.0,42.05945425901293,-93.64319327177768,8,2,2Fl,2002,2002,6,3827 BRICKMAN AVE,2267
527355150,-10423261.968776649,5168909.173440491,NWAmes,NW,278.0,42.05291513617854,-93.63375536933796,17,2,1Fl,1981,1981,8,1910 STEVENSON DR,2524
527454130,-10422383.86212354,5168488.972793733,NPkVill,NO,138.0,42.05011223963888,-93.62586720306224,16,1,2FlPUD,1977,1977,6,1119 JOHNSON ST,1456
533215020,-10424727.108243763,5167952.6833427735,Somerst,NW,300.0,42.04653480740365,-93.64691694110472,24,2,1FlPUD,2000,2000,9,2509 BRADFORD DR,1638
526302120,-10421583.53134721,5168899.78713666,NAmes,NO,169.0,42.05285252734815,-93.61867770937496,15,1,1Fl,1957,1957,5,627 RIVER OAK DR,1797
532378220,-10427508.769249188,5166188.530117466,Sawyer,WE,129.0,42.03476522873856,-93.67190502706886,22,5,1Fl,1967,1967,5,1310 ALABAMA LN,941
907420110,-10428838.603248632,5163110.34719666,CollgCr,WE,167.0,42.01422385807604,-93.68385112913928,5,5,2Fl,2005,2005,5,908 POE AVE,1536
527354100,-10423287.192114428,5168909.358939669,NWAmes,NW,188.0,42.05291637350058,-93.6339819544364,17,2,SPLIT,1980,1980,7,1915 STEVENSON DR,1472
535404080,-10420520.1944859,5166735.936183875,NAmes,NO,130.0,42.03841749102241,-93.60912559182812,15,1,1Fl,1957,1957,5,1603 CARROLL AVE,816
906223090,-10428634.169286909,5165743.224480365,SawyerW,WE,236.0,42.03179401991904,-93.6820146676152,23,5,2Fl,1993,1994,7,1006 VERMONT CT,1949
527450080,-10422752.553824568,5168863.323021711,BrDale,NO,126.0,42.05260930263202,-93.62917921696383,2,1,2FlPUD,1973,1973,5,1437 TRUMAN PL,1365
905352030,-10421771.804958371,5166153.874296733,ClearCr,WE,192.0,42.02835252844245,-93.6715743005661,4,5,2Fl,1977,1977,7,212 TRAIL RIDGE RD,2022
923275040,-10420055.985915478,5159295.071092692,Mitchel,SE,166.0,41.988754497238666,-93.60495553528985,14,3,SPLIT,1978,1978,5,521 ELY CIR,1110
906477110,-10428681.474256216,5164610.109871785,ClearCr,WE,155.0,42.02423292307692,-93.68243961538462,4,5,SPLIT,1971,1971,6,4804 WESTBEND DR,1052
908103310,-10427867.994232686,5164005.936361846,Edwards,WE,128.0,42.020201,-93.675132,7,5,DUP2FAM,1975,1975,6,200 WELLONS DR 202,1012
531477040,-10428288.076884445,5166391.181736077,SawyerW,WE,144.0,42.03611733333334,-93.67890566666668,23,5,DUP2FAM,1977,1977,5,1505 NORTH DAKOTA AVE,2020
534176230,-10423124.149799893,5167539.355419237,NWAmes,NW,171.0,42.04377747858016,-93.63251732040536,17,2,2Fl,1971,1971,6,2226 HAYES AVE,1645
907187060,-10429484.575877989,5163636.88086882,CollgCr,WE,217.0,42.017738,-93.689654,5,5,2Fl,1998,1999,7,5200 CERVANTES DR,1753
528385050,-10425418.930242363,5168726.229222798,NoRidge,NW,260.0,42.05169484456146,-93.65313168385708,18,2,2Fl,1995,1996,7,3014 ASPEN RD,2061
908204160,-10426784.95577481,5163914.278005688,Edwards,WE,82.0,42.0195893,-93.6654029,7,5,DUP2FAM,1955,1955,4,238 VILLAGE DR 240,1152
924100020,-10419529.003849022,5159604.539681358,Mitchel,SE,172.0,41.99082077407747,-93.60022157484228,14,3,2Fl,1969,1969,5,3402 JEWEL DR,1968
902477120,-10421771.804958371,5166153.874296733,IDOTRR,DT,35.0,42.02211967187807,-93.6223868045226,11,0,1Fl,1920,1950,4,,720
907401080,-10429285.468037652,5163244.497825012,CollgCr,WE,195.0,42.01511921212121,-93.6878653838384,5,5,2Fl,2004,2005,7,917 TENNYSON AVE,1948
528108120,-10425658.73609378,5170311.906760107,NridgHt,NW,376.0,42.062271,-93.65528589647256,19,2,2Fl,2009,2010,9,3033 STOCKBURY ST,2334
916403230,-10424412.127501495,5160860.404209041,Timber,SO,175.0,41.99920531082715,-93.64408742095492,26,4,SPLIT,1988,1989,6,2609 GREEN HILLS DR,1509
903236040,-10421801.872580022,5165654.119576319,BrkSide,DT,126.0,42.03119946938776,-93.62063910204084,3,0,1Fl,1925,1950,5,720 10TH ST,1072
903475060,-10421973.97143929,5164872.161792735,OldTown,DT,122.0,42.025981634565824,-93.62218509239744,20,0,DUP2FAM,1910,1950,7,519 NORTHWESTERN AVE 521,1889
527302090,-10423659.449563757,5169143.030912021,NWAmes,NW,213.0,42.054475,-93.637326,17,2,1Fl,1978,1985,7,2009 BUCHANAN DR,1664
923230120,-10419774.912879296,5159666.432980703,Mitchel,SE,138.0,41.99123401860321,-93.60243061324628,14,3,SPLIT,1971,1971,5,704 GARNET DR,796
534403420,-10422570.580487054,5167162.640654095,NAmes,NO,147.0,42.04126429351552,-93.62754452265992,15,1,1Fl,1964,1964,6,1912 BEL AIR DR,1374
902304060,-10421771.804958371,5166153.874296733,OldTown,DT,130.0,42.03110823180966,-93.6143793575468,20,0,DUP2FAM,1920,1960,5,709 CLARK AVE 709 1/2,2350
1007100110,-10417329.119727632,5164371.409457996,IDOTRR,DT,103.0,42.02263999781199,-93.58045967954692,11,0,2Fl,1900,1950,5,2520 E LINCOLN WAY,1836
907290090,-10428540.904651748,5163519.452253812,CollgCr,WE,213.0,42.01695428571429,-93.68117685714286,5,5,1Fl,2000,2001,7,4614 WEBSTER ST,1630
907203090,-10428900.927787757,5164159.376551305,CollgCr,WE,110.0,42.021225,-93.684411,5,5,1Fl,1975,1975,5,4915 SCHUBERT ST,924
905102060,-10427611.05195511,5165960.148773901,Sawyer,WE,132.0,42.03324141929304,-93.67282384824917,22,5,DUP2FAM,1965,1965,5,4018 QUEBEC ST,1039
907275150,-10428426.607165243,5163809.17819259,CollgCr,WE,275.0,42.018887888561366,-93.68015010535224,5,5,2Fl,2001,2001,8,4639 HEMINGWAY DR,2439
535152150,-10421464.55560425,5167410.196745971,NAmes,NO,166.0,42.04291583082946,-93.61760893209151,15,1,1Fl,1959,1959,5,2026 JENSEN AVE,1700
528365090,-10425492.236370862,5168426.94394231,NoRidge,NW,290.0,42.04969847336652,-93.65379020401356,18,2,2Fl,1994,1994,8,3133 SYCAMORE RD,2526
910200080,-10422670.434955545,5164355.479988717,IDOTRR,DT,126.0,42.02253369387755,-93.62844153061224,11,0,1Fl,1926,1998,6,121 S RUSSELL AVE,919
923225080,-10420094.42493831,5159854.908854179,MeadowV,SE,124.0,41.992492403615074,-93.60530083890698,13,3,1FlPUD,1975,1975,5,3334 SOUTHDALE DR,1040
906402200,-10428768.457593711,5165460.870496101,SawyerW,WE,320.0,42.02991,-93.683221,23,5,2Fl,1990,1990,7,926 IDAHO AVE,3222
921128050,-10425156.21581647,5159944.470910428,Timber,SO,425.0,41.993090368244026,-93.65077168001568,26,4,1Fl,2007,2007,9,2624 COTTONWOOD RD,1978
909250160,-10424725.26553331,5163683.08273794,Crawfor,SO,96.0,42.018046346938775,-93.6469003877551,6,4,1Fl,1926,1950,5,2321 BAKER ST,789
908225170,-10426407.985961229,5163993.48656511,Edwards,WE,92.0,42.02011791418733,-93.66201652254809,7,5,DUP2FAM,1955,1955,4,3319 TRIPP ST,784
906380060,-10429480.090530451,5164855.759350639,CollgCr,WE,272.0,42.02587218003842,-93.68961370743756,5,5,1Fl,2007,2008,8,5332 TABOR DR,1838
527175130,-10423154.23356765,5169460.912217704,Gilbert,NW,154.0,42.05659525375694,-93.63278756748916,8,2,1Fl,1964,1964,6,1711 TOP O HOLLOW RD,1128
528480110,-10424253.046027552,5168685.477457912,Somerst,NW,201.0,42.05142301513821,-93.64265836776028,24,2,2Fl,2005,2005,6,2517 CLAYTON DR,1716
528150070,-10425684.351101289,5170040.665599417,NridgHt,NW,612.0,42.060462,-93.655516,19,2,1Fl,2009,2010,9,4101 VALLEY VIEW RD,2364
923400040,-10420408.809113102,5158957.124456808,Mitchel,SE,160.0,41.986498,-93.608125,14,3,1Fl,1940,1985,6,300 KEN MARIL RD,1750
910205020,-10422323.9746228,5164197.217111785,IDOTRR,DT,78.0,42.021477530612245,-93.6253292244898,11,0,2Fl,1920,1950,5,203 S MAPLE AVE,1192
535103050,-10421354.978676235,5168311.57736052,NAmes,NO,202.0,42.04892890817189,-93.61662458579931,15,1,2Fl,1965,1988,7,2702 NORTHWOOD DR,1820
528240150,-10424234.540206583,5170154.997450684,Gilbert,NW,196.0,42.06122452447367,-93.64249212714206,8,2,2Fl,2004,2004,7,4010 BRICKMAN AVE,1594
906226120,-10428292.301728254,5165667.295120337,SawyerW,WE,143.0,42.03128738326857,-93.67894361908436,23,5,DUP2FAM,1979,1979,5,1001 NORTH DAKOTA AVE 1003,2240
535327140,-10420737.323302291,5166728.796513991,NAmes,NO,108.0,42.03836985690008,-93.61107609317202,15,1,1Fl,1955,2007,5,117 16TH ST,827
528427040,-10424310.138527889,5169336.824219904,Somerst,NW,213.0,42.05576760091469,-93.64317123841688,24,2,1Fl,2007,2007,7,3223 CULLEN DR,1369
528435020,-10424423.769187542,5169094.15595563,Somerst,NW,298.0,42.054149,-93.644192,24,2,2Fl,2007,2008,8,2616 DALTON ST,1874
534431130,-10421919.28738089,5166734.938801527,NAmes,NO,122.0,42.0384108367347,-93.62169385714286,15,1,1Fl,1955,1955,5,803 16TH ST,960
923203110,-10420413.205589203,5159934.384409512,Mitchel,SE,162.0,41.99302302560038,-93.6081644942168,14,3,1FlPUD,1998,1998,6,3322 EMERALD DR,1204
527356020,-10423678.056944216,5168547.368191486,NWAmes,NW,250.0,42.05050176633044,-93.63749315294264,17,2,2Fl,1978,1978,7,2935 EISENHOWER AVE,2784
527252090,-10422836.207256071,5169617.366787779,StoneBr,NW,318.0,42.0576387725844,-93.62993068852472,25,2,1FlPUD,2005,2005,9,3807 HOOVER AVE,1714
527258020,-10422831.911382344,5169577.261505189,StoneBr,NW,260.0,42.05737128048277,-93.62989209803447,25,2,1Fl,2005,2005,7,3802 HOOVER AVE,1530
533253060,-10424993.211024292,5167412.086365839,Greens,NW,155.0,42.04292843701024,-93.64930738305368,9,2,1FlPUD,1980,1980,8,2020 PINEHURST DR,788
905107380,-10427759.139612708,5165723.823720504,Sawyer,WE,120.0,42.03166456924505,-93.67415414231128,22,5,1Fl,1967,1967,5,1008 ARKANSAS AVE,1073
531375040,-10429692.635512792,5166657.590689399,SawyerW,WE,159.0,42.03789478718914,-93.69152303149954,23,5,1Fl,2004,2005,7,5425 KANSAS DR,1114
535355100,-10421286.367287451,5166162.624492413,OldTown,DT,112.0,42.03459238267333,-93.61600823920722,20,0,1Fl,1924,1950,6,427 13TH ST,1310
907192120,-10429700.44508575,5163423.968512782,CollgCr,WE,226.0,42.016317023596216,-93.69159318608703,5,5,1Fl,2003,2003,7,5421 CLEMENS BLVD,1479
528138010,-10425316.383239958,5170214.994972837,NridgHt,NW,324.0,42.06162466808756,-93.65221048846104,19,2,1Fl,2008,2008,9,2908 WESTON DR,1808
908229020,-10426097.228346003,5164183.273097383,Edwards,WE,100.0,42.02138447474748,-93.65922493939397,7,5,1Fl,1922,1950,5,203 STATE AVE,864
528480090,-10424238.321150605,5168686.2628167365,Somerst,NW,272.0,42.05142825378456,-93.64252609194008,24,2,1Fl,2005,2005,6,2505 CLAYTON DR,1468
527108070,-10423564.20268031,5170457.10907583,Gilbert,NW,378.0,42.06323938268836,-93.63647038268836,8,2,1Fl,2006,2007,9,4302 HARRISON CIR,1746
906226060,-10428382.29028015,5165834.770963532,SawyerW,WE,131.0,42.0324048560419,-93.679752,23,5,2Fl,1880,2007,5,1110 DELAWARE AVE,2016
908275290,-10426428.156133195,5163635.853415677,Edwards,WE,125.0,42.01773114285714,-93.66219771428572,7,5,1Fl,1954,1968,4,3334 MORNINGSIDE ST,1482
531375070,-10429677.48482361,5166655.521822493,SawyerW,WE,142.0,42.037880984107865,-93.69138693054298,23,5,1Fl,2005,2005,6,5409 KANSAS DR,1141
528480070,-10424220.4415586,5168799.84188624,Somerst,NW,266.0,42.05218586544711,-93.64236547683238,24,2,2Fl,2006,2006,8,2512 KINGSTON DR,1939
905300080,-10428009.076133486,5165309.988782248,Sawyer,WE,142.0,42.02890321194663,-93.676399360278,22,5,1Fl,1974,1974,5,733 ARIZONA AVE,894
907203040,-10428783.48572497,5164240.443117752,CollgCr,WE,150.0,42.021766,-93.683356,5,5,1Fl,1972,1972,5,201 ROCKWELL AVE,894
535450180,-10420653.521159437,5166342.0782379685,NAmes,NO,135.0,42.03578971428571,-93.61032328571429,15,1,1Fl,1949,1950,4,115 E 14TH ST,1192
531382070,-10429672.028854832,5166342.778888423,SawyerW,WE,257.0,42.03579438904468,-93.69133791874154,23,5,1Fl,2005,2006,8,1340 CALIFORNIA AVE,1844
527216080,-10422414.462024877,5170098.333111988,StoneBr,NW,592.0,42.06084660866363,-93.62614208665283,25,2,1Fl,2006,2007,9,4120 LAURA CT,2338
906394050,-10429400.084384477,5164455.786254896,CollgCr,WE,176.0,42.02320307609885,-93.688895,5,5,1Fl,2006,2006,6,118 HARTFORD DR,1314
527252070,-10422844.161041582,5169604.087504072,StoneBr,NW,392.0,42.05755020324208,-93.63000213859564,25,2,1Fl,2007,2007,8,3817 HOOVER AVE,1419
534250010,-10422884.88375494,5167802.146298477,NWAmes,NW,135.0,42.04553058199126,-93.63036795695383,17,2,DUP2FAM,1973,1973,5,1504 24TH ST,1656
904100090,-10425715.6318782,5166145.181462783,Sawyer,WE,150.0,42.034476,-93.655797,22,5,DUP2FAM,1964,1964,6,2800 ONTARIO ST,1921
905453040,-10426858.316736937,5164748.397478491,Edwards,WE,186.0,42.02515574286182,-93.66606191273536,7,5,1Fl,2009,2009,6,218 CRANE AVE,1212
527326150,-10423317.044053858,5169264.029524503,NWAmes,NW,215.0,42.05528206355001,-93.63425011897093,17,2,1Fl,1977,2000,6,1709 BUCHANAN DR,1602
909101050,-10425843.82362274,5164287.889680956,Edwards,WE,116.0,42.02208263383202,-93.6569485660342,7,5,1Fl,1918,1950,5,2912 WOOD ST,1250
923203140,-10420413.342033,5159924.86770258,Mitchel,SE,160.0,41.99295948712776,-93.60816571991228,14,3,1FlPUD,1997,1997,6,3328 EMERALD DR,1189
906230020,-10428291.60132588,5165555.076182467,SawyerW,WE,270.0,42.03053859797348,-93.67893732726276,23,5,DUP2FAM,2000,2000,7,907 NORTH DAKOTA AVE,2787
528218060,-10424505.854040615,5170244.598064264,Gilbert,NW,170.0,42.061822100111776,-93.64492938078112,8,2,2Fl,2005,2006,6,4221 CRESTMOOR AVE,1456
906380040,-10429586.484572249,5164783.574205295,CollgCr,WE,246.0,42.02539048178546,-93.6905694613764,5,5,1Fl,2007,2007,8,5408 TABOR DR,1651
528228360,-10423982.098679151,5170447.738799549,Blmngtn,NW,247.0,42.063176890926,-93.64022440631769,0,2,1FlPUD,2002,2002,7,2304 WESTWIND DR,1511
532377130,-10427684.49870956,5166180.140374804,Sawyer,WE,131.0,42.0347092512174,-93.6734836316701,22,5,1Fl,1961,1983,5,1304 ALBERTA AVE,1144
527256040,-10421771.804958371,5166153.874296733,StoneBr,NW,455.0,42.06046556852748,-93.6313684902607,25,2,1Fl,2006,2007,10,1303 KINYON CIR,2042
903400030,-10422378.263854165,5165398.724685389,BrkSide,DT,109.0,42.02949532172788,-93.6258169129528,3,0,1Fl,1925,1950,5,829 RIDGEWOOD AVE,816
535453200,-10420256.444253966,5166553.954988434,NAmes,NO,132.0,42.03720334607937,-93.60675628318276,15,1,1Fl,1959,1959,5,1516 MAXWELL AVE,1148
528240080,-10424114.42179672,5169997.852212287,Gilbert,NW,230.0,42.060176458179896,-93.6414130851072,8,2,2Fl,2000,2000,8,3903 WESTLAWN DR,1936
534476320,-10422241.113736456,5166581.301533005,NAmes,NO,129.0,42.03738579865772,-93.62458487248324,15,1,1Fl,1956,1956,5,1530 CURTISS AVE,1050
902125080,-10421067.572869526,5165983.527395507,OldTown,DT,107.0,42.03339740816326,-93.6140427755102,20,0,1Fl,1915,1950,3,1203 KELLOGG AVE,1605
528327010,-10425322.50052667,5169311.802680338,NoRidge,NW,405.0,42.05560070878284,-93.65226544098256,18,2,2Fl,2000,2000,9,3124 ALMOND RD,2855
916455070,-10424717.132149735,5160430.755423337,Timber,SO,220.0,41.99633696806935,-93.64682732432732,26,4,1Fl,2001,2002,8,2909 WHITE OAK DR,1296
535350030,-10421617.557037009,5166709.761102988,NAmes,NO,145.0,42.038242857142855,-93.61898336734694,15,1,1Fl,1954,2003,5,618 16TH ST,1086
905226170,-10426400.535553947,5166054.397181924,Sawyer,WE,137.0,42.03387026937016,-93.66194959440077,22,5,1Fl,1958,1998,5,1248 WISCONSIN AVE,1176
528488140,-10424371.496045418,5168655.35492961,Somerst,NW,230.0,42.05122208592715,-93.6437224223748,24,2,1Fl,2007,2008,7,2612 CLAYTON DR,1218
528228580,-10424255.351116857,5170442.807000205,Blmngtn,NW,247.0,42.063144,-93.6426790747298,0,2,1FlPUD,2006,2006,7,2420 LAKESIDE DR,1500
527453130,-10422409.13721775,5168575.319066642,NPkVill,NO,150.0,42.05068821188921,-93.6260942530966,16,1,2FlPUD,1975,1975,6,1113 KENNEDY ST,1456
534127210,-10423371.980241047,5168301.8375010425,NWAmes,NW,183.0,42.04886393696468,-93.63474361913696,17,2,SPLIT,1969,1969,6,2741 CLEVELAND DR,1427
531452020,-10429103.339980485,5166179.501124867,SawyerW,WE,100.0,42.03470498605157,-93.68622929966418,23,5,1FlPUD,1979,1979,6,1308 INDIANA AVE,918
911175430,-10421147.536030715,5163841.002031272,IDOTRR,DT,35.0,42.01910027419408,-93.61476109680883,11,0,1Fl,1949,1950,2,313 S 4TH ST,480
531452180,-10429104.91668777,5166451.466721367,SawyerW,WE,194.0,42.03651955306964,-93.68624346346672,23,5,2Fl,1993,2003,7,1528 INDIANA AVE,1744
902300110,-10421561.538343051,5165342.6914886525,OldTown,DT,140.0,42.02912142857143,-93.61848014285717,20,0,DUP2FAM,1900,2006,5,813 WILSON AVE,1627
924152030,-10419524.836054374,5159362.224868357,Mitchel,SE,231.0,41.98920287894761,-93.60018413490596,14,3,2Fl,1993,1994,6,3715 JEWEL DR,1797
902110120,-10421771.804958371,5166153.874296733,OldTown,DT,112.0,42.03110823180966,-93.6143793575468,20,0,DUP2FAM,1900,1950,4,916 WILSON AVE 918,1951
528439080,-10424464.6136916,5168950.467340527,Somerst,NW,249.0,42.05319057536633,-93.64455891242268,24,2,1Fl,2005,2006,7,2511 YORKSHIRE ST,1506
908151040,-10427887.86362588,5163827.606835647,Edwards,WE,147.0,42.01901087755102,-93.67531048979592,7,5,SPLIT,1977,1977,6,413 WELLONS CIR,1117
528390020,-10425201.331898255,5168392.210881098,NoRidge,NW,302.0,42.04946678372613,-93.65117696467397,18,2,1Fl,1994,1994,8,2948 CYPRESS CIR,1987
531453140,-10428991.508502709,5166318.874543867,SawyerW,WE,144.0,42.035634898410905,-93.68522470040688,23,5,SPLIT,1983,1983,5,1501 ILLINOIS AVE,884
905226110,-10426293.099224094,5165873.239441806,ClearCr,WE,145.0,42.03266153193981,-93.66098447742898,4,5,DUP2FAM,1960,1960,5,3219 ROSS RD,1721
531363080,-10429777.510485096,5166644.2638040185,SawyerW,WE,140.0,42.03780587272578,-93.69228547634812,23,5,1Fl,2005,2005,6,5510 KANSAS DR,1142
527450520,-10422518.770217942,5168691.629313764,BrDale,NO,100.0,42.05146405037852,-93.62707910309376,2,1,2FlPUD,1972,1972,6,1208 TRUMAN PL,987
534252040,-10422265.0021368,5167674.009065264,NAmes,NO,144.0,42.04467577213927,-93.62479946563464,15,1,1Fl,1958,1983,5,2303 MELROSE AVE,1344
527453140,-10422411.51672932,5168575.249403544,NPkVill,NO,123.0,42.05068774720407,-93.62611562861272,16,1,1FlPUD,1975,1975,7,1115 KENNEDY ST,1055
531385020,-10429386.58292052,5166521.895543802,SawyerW,WE,189.0,42.03698944897959,-93.68877371428572,23,5,1Fl,2001,2001,7,1516 NEBRASKA AVE,1434
534151175,-10423625.043000748,5167442.666271004,NWAmes,NW,244.0,42.043132443732944,-93.63701692058576,17,2,2Fl,1993,1993,6,2029 PRAIRIE VIEW EAST,2495
914452060,-10420226.227920184,5160135.282327774,Mitchel,SE,145.0,41.99436430952381,-93.6064848452381,14,3,DUP2FAM,1978,1978,6,411 OPAL CIR 413,1664
535426130,-10420088.30553918,5166813.153855374,NAmes,NO,135.0,42.03893266606289,-93.60524586740932,15,1,2Fl,1969,1969,5,621 CARR DR,2080
905200220,-10426935.010033524,5165989.236010185,Sawyer,WE,139.0,42.03343549761995,-93.6667508603405,22,5,1Fl,1962,1962,5,3613 ANNEAR ST,1092
903425280,-10422314.854106532,5165049.208768631,BrkSide,DT,154.0,42.02716306817302,-93.6252472934982,3,0,2Fl,1915,2003,6,622 RIDGEWOOD AVE,1396
527326130,-10423320.462632963,5169263.227677501,NWAmes,NW,175.0,42.05527671524565,-93.63428082858952,17,2,1Fl,1977,1977,5,1717 BUCHANAN DR,1126
902105110,-10421391.8374589,5165826.353859707,OldTown,DT,132.0,42.03234869387755,-93.61695569387754,20,0,2Fl,1910,2002,5,1112 CLARK AVE,1432
528477050,-10424236.300351528,5168826.112854022,Somerst,NW,310.0,42.052361100598375,-93.64250793879312,24,2,2Fl,2008,2008,10,2525 KINGSTON DR,2007
909282130,-10423898.400355464,5163382.978245761,Crawfor,SO,145.0,42.01604345103652,-93.63947253148343,6,4,1Fl,1954,1954,5,707 BEACH AVE,1112
534402170,-10422637.719036449,5166959.273334104,NAmes,NO,178.0,42.03990752355813,-93.6281476385107,15,1,2Fl,1965,1965,5,1405 ARTHUR DR,2140
528228340,-10424001.069929762,5170471.093019285,Blmngtn,NW,215.0,42.063332643566966,-93.64039482796149,0,2,1FlPUD,2003,2003,8,2313 WESTWIND DR,1456
911128180,-10421200.869738268,5164180.001985143,IDOTRR,DT,68.0,42.02136264484655,-93.61524020165535,11,0,1Fl,1920,1950,4,212 WASHINGTON AVE,1128
527404020,-10422483.09011748,5169251.387749407,NAmes,NO,128.0,42.055197743096855,-93.62675858329791,15,1,1Fl,1970,1970,5,1218 JEFFERSON ST,1180
908103350,-10427892.675354077,5164002.618416296,Edwards,WE,125.0,42.02017885714286,-93.67535371428572,7,5,SPLIT,1975,1975,6,215 WELLONS DR,1096
527126030,-10423331.282487886,5170448.905975667,StoneBr,NW,251.0,42.063184675,-93.634378025,25,2,1FlPUD,2000,2000,8,4321 STONE BROOKE RD,1652
916475040,-10424737.68902714,5160282.931126965,Timber,SO,315.0,41.99535006060606,-93.647011989899,26,4,1Fl,2006,2006,9,2320 SUNCREST DR,1838
905452110,-10421771.804958371,5166153.874296733,Edwards,WE,127.0,42.022026364190864,-93.66674564927546,7,5,1Fl,1947,1979,4,307 FRANKLIN AVE,1531
533208020,-10424703.434427852,5168129.154525422,Somerst,NW,194.0,42.04771201799954,-93.64670427559804,24,2,1FlPUD,2006,2007,7,2816 NORTHRIDGE LN,1352
902103120,-10421611.14363974,5165805.761394635,OldTown,DT,104.0,42.032211292796056,-93.61892575481906,20,0,DUP2FAM,1910,1950,6,621 11TH ST 619,1944
527359180,-10423294.878231408,5168695.669506385,NWAmes,NW,198.0,42.051491,-93.634051,17,2,2Fl,1976,1976,5,2985 MONROE DR,1868
535475020,-10420064.04702792,5166513.602894014,NAmes,NO,140.0,42.03693412121212,-93.60502794949495,15,1,2Fl,1963,1963,6,1531 LINDEN DR,1796
909129100,-10421771.804958371,5166153.874296733,SWISU,SO,159.0,42.01989639697343,-93.65108788541777,21,4,1Fl,1932,2000,5,,1520
923227100,-10419962.874364931,5159981.890506367,Mitchel,SE,140.0,41.9933402,-93.6041191,14,3,1Fl,1969,1979,5,3330 JEWEL DR,1360
528150090,-10425968.25440263,5169908.594475779,NridgHt,NW,378.0,42.05958115388315,-93.65806634674809,19,2,1Fl,2004,2005,9,3203 HARRISON RD,1780
916252170,-10421771.804958371,5166153.874296733,GrnHill,SO,230.0,42.001514,-93.644726,10,4,1FlPUD,1986,1986,7,,1295
914475030,-10419960.278769586,5160541.967571332,Mitchel,SE,173.0,41.9970794347026,-93.60409578337028,14,3,SPLIT,1977,1977,6,627 CRYSTAL ST,1287
923225240,-10419930.947393006,5159568.936417155,MeadowV,SE,127.0,41.99058305966545,-93.60383229513144,13,3,2FlPUD,1977,1977,5,3472 SOUTHDALE DR,1475
527108060,-10423585.310782889,5170444.306440643,Gilbert,NW,309.0,42.063154,-93.63666,8,2,2Fl,2005,2006,7,4301 HARRISON CIR,2212
528482090,-10423925.64183161,5168630.794255986,Somerst,NW,340.0,42.05105825602237,-93.63971724582728,24,2,2Fl,2004,2005,8,2307 CLAYTON DR,2466
527358060,-10423426.613716813,5168577.745901523,NWAmes,NW,175.0,42.0507044,-93.6352344,17,2,1Fl,1971,1971,5,2944 MONROE DR,1484
903235100,-10422228.48522488,5165544.072003474,BrkSide,DT,68.0,42.03046517167965,-93.62447142863358,3,0,1Fl,1927,1950,4,916 NORTHWESTERN AVE,520
903225040,-10422259.970459243,5166008.663411955,BrkSide,DT,135.0,42.03356512244898,-93.62475426530612,3,0,1Fl,1939,1998,5,1217 CURTISS AVE,1274
905453080,-10426470.174595442,5164586.442821625,Edwards,WE,308.0,42.02407498695896,-93.6625751725542,7,5,1Fl,2009,2010,7,3520 STORY ST,1508
903227080,-10422118.501561057,5165989.00849736,BrkSide,DT,120.0,42.03343397959184,-93.62348342857142,3,0,1Fl,1929,1950,6,1204 MARSTON AVE,1158
908102140,-10428140.989595884,5164105.60601223,Edwards,WE,123.0,42.02086615826354,-93.67758435907253,7,5,1Fl,1966,1966,5,221 TODD CIR,1092
534275060,-10422088.605719352,5167446.428977309,NAmes,NO,142.0,42.043157545707366,-93.62321486965608,15,1,1Fl,1960,1960,4,2103 MELROSE AVE,894
907202080,-10428936.183269398,5163943.894824081,CollgCr,WE,136.0,42.01978695428436,-93.68472770538008,5,5,1Fl,1978,2005,5,5008 EMERSON DR,864
532351090,-10427974.926826812,5166412.215973938,Sawyer,WE,125.0,42.036257673469386,-93.67609259183672,22,5,DUP2FAM,1963,1963,5,4203 TORONTO ST 4205,1728
923226300,-10419870.504815113,5159820.3495046375,MeadowV,SE,86.0,41.992261665241934,-93.60328933021609,13,3,2FlPUD,1972,1972,4,609 MEADOW PL,1092
907180130,-10429784.702761644,5163556.806571279,CollgCr,WE,204.0,42.017203588111634,-93.69235008566766,5,5,1Fl,1999,1999,7,5333 CERVANTES DR,1501
907412040,-10429020.480423111,5163063.876291426,CollgCr,WE,186.0,42.013913696969695,-93.68548495959595,5,5,1Fl,2004,2004,7,4901 WALLER ST,1445
535456100,-10420368.947648091,5166203.991300239,NAmes,NO,110.0,42.0348683877551,-93.60776691836736,15,1,1Fl,1954,1954,5,1322 STAFFORD AVE,825
528172020,-10424350.994475614,5170221.366863271,NridgHt,NW,275.0,42.06166716421552,-93.64353825363976,19,2,2Fl,2005,2005,8,3038 HARRISON RD,1904
